id,number,name,lat,lon
185,1,"ЦЕНТАР РЕКОРД-КОН ЗАПАД",41.99479675293,21.43000793457
186,2,"ЦЕНТАР РЕКОРД-КОН ИСТОК",41.994338989258,21.431503295898
187,3,"ГРАДСКА БОЛНИЦА",41.991653442383,21.434616088867
188,4,"ЗЕЛЕН ПАЗАР",41.991851806641,21.434158325195
189,5,"ЈУГОДРВО-КОН ЦЕНТАР",41.992385864258,21.438385009766
190,6,"ЈУГОДРВО ОЛИМПИСКИ БАЗЕН",41.992290496826,21.438840866089
191,7,"БАНКА НА РМ 2-КОН МАНУ",41.992858886719,21.443756103516
192,8,"БАНКА НА РМ 1-КОН ЈУГОДРВО",41.992450714111,21.444410324097
193,9,"ВЕРО ЏАМБО",41.993423461914,21.442260742188
194,10,"ЖЕЛЕЗНИЧКА СТАНИЦА-КОН ЦЕНТАР",41.991271972656,21.446258544922
195,11,"ЖЕЛЕЗНИЧКА СТАНИЦА-КОН АЕРОДРОМ",41.991119384766,21.445980072021
196,12,"ТЦ СКОПЈАНКА-КОН ЦЕНТАР",41.988845825195,21.450302124023
197,13,"ТЦ СКОПЈАНКА-КОН НОВО ЛИСИЧЕ",41.988739013672,21.449920654297
198,14,"АЕРОДРОМ ПАЛМА",41.98844909668,21.453750610352
199,15,"АЕРОДРОМ ТОБАКО 2",41.987930297852,21.453094482422
200,16,"ТЦ ТРИ БИСЕРИ-КОН ЦЕНТАР",41.989318847656,21.458343505859
201,17,"ТЦ ТРИ БИСЕРИ-КОН НОВО ЛИСИЧЕ",41.98893737793,21.457641601562
202,18,"МАЈЧИН ДОМ-КОН ЦЕНТАР",41.987106323242,21.463745117188
203,19,"МАЈЧИН ДОМ-КОН НОВО ЛИСИЧЕ",41.98698425293,21.46321105957
204,20,"ТЦ КАПИТОЛ",41.985168457031,21.467208862305
205,21,"ТЦ БИСЕР",41.985000610352,21.466720581055
206,22,"РУДАРСКИ ИНСТИТУТ-КОН ЦЕНТАР",41.983657836914,21.46989440918
207,23,"РУДАРСКИ ИНСТИТУТ-КОН НОВО ЛИСИЧЕ",41.9833984375,21.469619750977
208,24,"НОВО ЛИСИЧЕ ПОШТА-КОН ЦЕНТАР",41.982070922852,21.473022460938
209,25,"НОВО ЛИСИЧЕ ПОШТА-КОН Т",41.981109619141,21.474151611328
210,26,"НОВО ЛИСИЧЕ 1-КОН ЦЕНТАР",41.979827880859,21.477798461914
211,27,"НОВО ЛИСИЧЕ 1-КОН Т",41.979904174805,21.476791381836
212,28,"НОВО ЛИСИЧЕ ЗГРАДИ-КОН ЦЕНТАР",41.982791900635,21.481594085693
213,29,"НОВО ЛИСИЧЕ ЗГРАДИ-КОН Т",41.981567382812,21.480804443359
214,30,"НОВО ЛИСИЧЕ Т-ПОЧЕТНА",41.985790252686,21.484630584717
215,31,"НОВО ЛИСИЧЕ Т-КРАЈНА",41.985687255859,21.484146118164
216,32,"НОВО ЛИСИЧЕ ФФМ-КОН ЦЕНТАР",41.98649597168,21.480911254883
217,33,"НОВО ЛИСИЧЕ ФФМ-КОН Т",41.985900878906,21.482849121094
218,34,"ПАРК АЕРОДРОМ-КОН ЦЕНТАР",41.988311767578,21.476650238037
219,35,"ПАРК АЕРОДРОМ-КОН Т",41.988311767578,21.477233886719
220,36,"ГП МАВРОВО-КОН ЦЕНТАР",41.990341186523,21.471389770508
221,37,"ГП МАВРОВО-КОН Т",41.990844726562,21.470306396484
222,38,"СС ЈАНЕ САНДАНСКИ Т-ПОЧЕТНА",41.992095947266,21.466461181641
223,39,"СС ЈАНЕ САНДАНСКИ Т-КРАЈНА",41.992309570312,21.466659545898
224,40,"БУЛ.СРБИЈА ЛУКОИЛ",41.987609863281,21.473358154297
226,42,"ПЛОШТАД ЈАНЕ САНДАНСКИ-КОН УСЈЕ",41.982025146484,21.470352172852
228,44,"БУЛ.СРБИЈА КРСТ",41.976699829102,21.463836669922
229,45,"БУЛ.СРБИЈА МАКПЕТРОЛ",41.977966308594,21.465713500977
231,47,"МЕЃУГРАДСКА АВТОБУСКА-КОН ЦЕНТАР",41.989593505859,21.443115234375
232,48,"МЕЃУГРАДСКА АВТОБУСКА-КОН ЛИСИЧЕ",41.989761352539,21.443145751953
233,49,"ТРАНСПОРТЕН ЦЕНТАР Т(21,22)",41.990280151367,21.445039749146
234,50,"ТРАНСПОРТЕН ЦЕНТАР Т(41,65В)",41.990188598633,21.445037841797
235,51,"ТРАНСПОРТЕН ЦЕНТАР Т-ПРИГРАДСКИ ЛИНИИ",41.990051269531,21.444808959961
236,52,"ТУТУНСКИ КОМБИНАТ-КОН ЦЕНТАР",41.986770629883,21.444442749023
237,53,"ТУТУНСКИ КОМБИНАТ-КОН ЛИСИЧЕ",41.986572265625,21.444290161133
238,54,"ОПШТИНА АЕРОДРОМ",41.984832763672,21.448608398438
239,55,"СУ ДИМИТАР ВЛАХОВ",41.984558105469,21.448608398438
241,57,"РАДЕ КОНЧАР БЕНЗИНСКА-КОН ЦЕНТАР",41.982635498047,21.453277587891
242,58,"РАДЕ КОНЧАР БЕНЗИНСКА-КОН ЛИСИЧЕ",41.982772827148,21.452392578125
243,59,"АМЕРИКАН КОЛЕЏ-КОН ЦЕНТАР",41.980575561523,21.457794189453
244,60,"АМЕРИКАН КОЛЕЏ-КОН ЛИСИЧЕ",41.980575561523,21.456985473633
245,61,"СУ МАРИЈА КИРИ СКЛОДОВСКА",41.978759765625,21.461608886719
246,62,"СУ ВЛАДО ТАСЕВСКИ",41.978652954102,21.461486816406
247,63,"ЛИСИЧЕ ГРАДИНКА-КОН ЦЕНТАР",41.976608276367,21.466217041016
248,64,"ЛИСИЧЕ ГРАДИНКА-КОН ГОРНО ЛИСИЧЕ",41.976196289062,21.466567993164
249,65,"ЛИСИЧЕ ПОЛИЦИСКА СТАНИЦА-КОН ЦЕНТАР",41.97395324707,21.471893310547
250,66,"ЛИСИЧЕ ПОЛИЦИСКА СТАНИЦА-КОН ГОРНО ЛИСG",41.973690032959,21.471830368042
251,67,"ЛИСИЧЕ-КОН ЦЕНТАР",41.971599578857,21.477003097534
252,68,"ЛИСИЧЕ-КОН ГОРНО ЛИСИЧЕ",41.971374511719,21.476974487305
253,69,"УЛ.ГОРНОВРАНОВСКА-КОН ЦЕНТАР",41.970993041992,21.482421875
254,70,"УЛ.ГОРНОВРАНОВСКА-КОН ГОРНО ЛИСИЧЕ",41.970932006836,21.482192993164
255,71,"ОУ ГОЦЕ ДЕЛЧЕВ-КОН ЦЕНТАР",41.969848632812,21.486400604248
256,72,"ОУ ГОЦЕ ДЕЛЧЕВ-КОН Т",41.969619750977,21.486267089844
257,73,"ГОРНО ЛИСИЧЕ-КОН ЦЕНТАР",41.967864990234,21.489105224609
258,74,"ГОРНО ЛИСИЧЕ-КОН Т",41.967819213867,21.48893737793
259,75,"ТРАФОСТАНИЦА УЛ ЛИСЕЦ-КОН ЦЕНТАР",41.96605682373,21.486568450928
260,76,"ТРАФОСТАНИЦА УЛ ЛИСЕЦ-КОН Т",41.966186523438,21.486465454102
261,77,"ХЕМТЕКС Т-ПОЧЕТНА",41.964477539062,21.484039306641
262,78,"ХЕМТЕКС Т-КРАЈНА",41.96452331543,21.483947753906
273,89,"ГОРНО ЛИСИЧЕ КАНАЛ-КОН ЦЕНТАР",41.970397949219,21.485061645508
274,90,"ГОРНО ЛИСИЧЕ КАНАЛ-КОН ВАРДАРСКА",41.97053527832,21.485168457031
275,91,"ВАРДАРСКА 1-КОН ЦЕНТАР",41.972702026367,21.485305786133
276,92,"ВАРДАРСКА 1-КОН Т",41.972640991211,21.485458374023
277,93,"ВАРДАРСКА 2-КОН ЦЕНТАР",41.974090576172,21.487823486328
278,94,"ВАРДАРСКА 2-КОН Т",41.974021911621,21.487878799438
279,95,"ВАРДАРСКА Т-ПОЧЕТНА",41.97643661499,21.492214202881
280,96,"ВАРДАРСКА Т-КРАЈНА",41.97639465332,21.492294311523
299,115,"ОСИГУРУВАЊЕ МАКЕДОНИЈА",41.989028930664,21.436157226562
300,116,"БИЛНА АПТЕКА",41.989398956299,21.435914993286
301,117,"ЧЕШМА КИСЕЛА ВОДА ЦВЕТАН ДИМОВ",41.985382080078,21.438095092773
302,118,"ЧЕШМА КИСЕЛА ВОДА МАКСИ Д",41.983291625977,21.439300537109
303,119,"ОПШТИНА КИСЕЛА ВОДА",41.980800628662,21.441848754883
304,120,"КИСЕЛА ВОДА ТИНЕКС-КОН ЦЕНТАР",41.979145050049,21.445636749268
305,121,"КИСЕЛА ВОДА ЗГРАДИ-КОН ДРАЧЕВО",41.979843139648,21.443435668945
306,122,"11 ОКТОМВРИ СУПЕР ТИНЕКС-КОН ЦЕНТАР",41.975738525391,21.452682495117
307,123,"11 ОКТОМВРИ СУПЕР ТИНЕКС-КОН ДРАЧЕВО",41.975158691406,21.453489303589
308,124,"11 ОКТОМВРИ Т",41.975967407227,21.454360961914
309,125,"ЦЕМЕНТАРА-КОН ЦЕНТАР",41.973175048828,21.458194732666
310,126,"ЦЕМЕНТАРА-КОН ДРАЧЕВО",41.97253036499,21.459266662598
311,127,"ИНДУСТРИСКИ КОЛОСЕК-КОН ЦЕНТАР",41.969772338867,21.465423583984
312,128,"ИНДУСТРИСКИ КОЛОСЕК-КОН ДРАЧЕВО",41.969005584717,21.46675491333
313,129,"СТАКЛАРА-КОН ЦЕНТАР",41.965255737305,21.474761962891
314,130,"СТАКЛАРА-КОН ДРАЧЕВО",41.964385986328,21.476455688477
315,131,"ОХИС-КОН ЦЕНТАР",41.958038330078,21.484954833984
316,132,"ОХИС-КОН ДРАЧЕВО",41.958801269531,21.483978271484
317,133,"ПИНТИЈА-КОН ЦЕНТАР",41.955642700195,21.487319946289
318,134,"ПИНТИЈА-КОН ДРАЧЕВО",41.954895019531,21.487838745117
319,135,"ПЕКАРА ВАТАША-КОН ЦЕНТАР",41.951499938965,21.491781234741
320,136,"ПЕКАРА ВАТАША-КОН ДРАЧЕВО",41.951530456543,21.491485595703
321,137,"ПИНТИЈА ТРАФОСТАНИЦА-КОН ЦЕНТАР",41.947799682617,21.494415283203
322,138,"ПИНТИЈА ТРАФОСТАНИЦА-КОН ДРАЧЕВО",41.948013305664,21.493988037109
323,139,"ТЕХНОКООП-КОН ЦЕНТАР",41.945770263672,21.496337890625
324,140,"ТЕХНОКООП-КОН ДРАЧЕВО",41.945251464844,21.496490478516
325,141,"МАРКОВА РЕКА МОСТ-КОН ЦЕНТАР",41.940246582031,21.499465942383
326,142,"МАРКОВА РЕКА МОСТ-КОН ДРАЧЕВО",41.940399169922,21.498779296875
327,143,"ДРАЧЕВО ТОПОЛИ-КОН ЦЕНТАР",41.938179016113,21.509119033813
328,144,"ДРАЧЕВО ТОПОЛИ-КОН Т",41.938301086426,21.508531570435
329,145,"ДРАЧЕВО ГРАДИНКА-КОН ЦЕНТАР",41.940788269043,21.511922836304
330,146,"ДРАЧЕВО ГРАДИНКА-КОН Т",41.940628051758,21.511018753052
331,147,"ДРАЧЕВО ПАЗАР-КОН ЦЕНТАР",41.939437866211,21.516036987305
332,148,"ДРАЧЕВО ПАЗАР-КОН Т",41.939605712891,21.515075683594
333,149,"ДРАЧЕВО 1-КОН ЦЕНТАР",41.937309265137,21.522075653076
334,150,"ДРАЧЕВО 1-КОН Т",41.937465667725,21.521638870239
335,151,"ДРАЧЕВО 2-КОН ЦЕНТАР",41.939949035645,21.523965835571
336,152,"ДРАЧЕВО 2-КОН Т",41.939929962158,21.524011611938
337,153,"ДРАЧЕВО ИГРАЛИШТЕ-КОН ЦЕНТАР",41.940101623535,21.527803421021
338,154,"ДРАЧЕВО ИГРАЛИШТЕ-КОН Т",41.940139770508,21.527910232544
339,155,"ДРАЧЕВО ЖЕЛЕЗНИЧКА СТАНИЦА Т",41.939147949219,21.532852172852
340,156,"С.ДРАЧЕВО СРЕД СЕЛО-КОН ЦЕНТАР",41.93278503418,21.521148681641
341,157,"С.ДРАЧЕВО СРЕД СЕЛО-КОН ЗЕЛЕНИКОВО",41.932556152344,21.521179199219
342,158,"С.ДРАЧЕВО Т-ПОЧЕТНА",41.931854248047,21.524105072021
343,159,"С.ДРАЧЕВО Т-КРАЈНА",41.931789398193,21.523986816406
344,160,"ПАТ ЗА УСЈЕ-КОН Т",41.969360351562,21.465637207031
345,161,"УСЈЕ ВУЛЕ-КОН ЦЕНТАР",41.967330932617,21.462738037109
346,162,"УСЈЕ ВУЛЕ-КОН Т",41.967578887939,21.46265411377
347,163,"УСЈЕ МОСТ-КОН ЦЕНТАР",41.965187072754,21.461868286133
348,164,"УСЈЕ МОСТ-КОН Т",41.965312957764,21.461814880371
349,165,"УСЈЕ 1-КОН ЦЕНТАР",41.964366912842,21.460210800171
350,166,"УСЈЕ 1-КОН Т",41.964324951172,21.460102081299
351,167,"УСЈЕ 2-КОН ЦЕНТАР",41.962280273438,21.459396362305
352,168,"УСЈЕ 2-КОН Т",41.962257385254,21.459241867065
353,169,"УСЈЕ Т",41.958679199219,21.45837020874
355,171,"ОУ КИРИЛ ПЕЈЧИНОВИЌ-КОН КИСЕЛА ВОДА",41.977867126465,21.445030212402
356,172,"ОУ КУЗМАН ЈОСИФОСКИ ПИТУ-КОН ЦЕНТАР",41.986770629883,21.433151245117
357,173,"ОУ КУЗМАН ЈОСИФОСКИ ПИТУ-КОН КИСЕЛА ВОДА",41.986263275146,21.433177947998
358,174,"ШАМПИОНЧЕ-КОН ЦЕНТАР",41.981033325195,21.435775756836
359,175,"ШАМПИОНЧЕ-КОН КИСЕЛА ВОДА",41.981956481934,21.435073852539
360,176,"КИСЕЛА ВОДА ЖИТО МАРКЕТ",41.976165771484,21.43830871582
361,177,"КИСЕЛА ВОДА ПРЖИНО",41.977172851562,21.437591552734
362,178,"ДОМ НА СЛЕПИ-КОН ЦЕНТАР",41.975692749023,21.443832397461
363,179,"ДОМ НА СЛЕПИ-КОН СОПИШТЕ",41.976547241211,21.443008422852
364,180,"Ф-КА МИРКА ГИНОВА",41.971405029297,21.445320129395
365,181,"ОУ КРУМЕ КЕПЕСКИ",41.971897125244,21.444955825806
366,182,"КИСЕЛА ВОДА Т-ПОЧЕТНА",41.969375610352,21.448425292969
367,183,"КИСЕЛА ВОДА Т-КРАЈНА",41.969192504883,21.448440551758
368,184,"ПОДРАЧНО ОУ КРУМЕ КЕПЕСКИ-КОН КИСЕЛА ВG",41.965278625488,21.448537826538
369,185,"ПОДРАЧНО ОУ КРУМЕ КЕПЕСКИ-КОН СОПИШТЕ",41.965183258057,21.448432922363
370,186,"ПРИПОР КРСТОСНИЦА-КОН КИСЕЛА ВОДА",41.962387084961,21.449935913086
371,187,"ПРИПОР КРСТОСНИЦА-КОН СОПИШТЕ",41.962646484375,21.449798583984
372,188,"ПРИПОР ЗГРАДИ-КОН КИСЕЛА ВОДА",41.959495544434,21.44792175293
373,189,"ПРИПОР ЗГРАДИ-КОН СОПИШТЕ",41.95902633667,21.447214126587
374,190,"ПРИПОР Т-ПОЧЕТНА",41.958648681641,21.443328857422
375,191,"ПРИПОР Т-КРАЈНА",41.958915710449,21.443832397461
376,192,"СОПИШТЕ ДАВИДОФ-КОН КИСЕЛА ВОДА",41.957534790039,21.438283920288
377,193,"СОПИШТЕ ДАВИДОФ-КОН ДОБРИ ДОЛ",41.957950592041,21.437255859375
378,194,"СОПИШТЕ ДЕТСКО ИГРАЛИШТЕ-КОН КИСЕЛА ВОG",41.956043243408,21.432844161987
379,195,"СОПИШТЕ ДЕТСКО ИГРАЛИШТЕ-КОН ДОБРИ ДОЛG",41.956195831299,21.432830810547
380,196,"СОПИШТЕ МОСТ-КОН КИСЕЛА ВОДА",41.955230712891,21.429229736328
381,197,"СОПИШТЕ МОСТ-КОН ДОБРИ ДОЛ",41.955184936523,21.429000854492
382,198,"СОПИШТЕ ЧЕШМА-КОН КИСЕЛА ВОДА",41.9547996521,21.424648284912
383,199,"СОПИШТЕ ЧЕШМА-КОН ДОБРИ ДОЛ",41.95482635498,21.424547195435
384,200,"СОПИШТЕ МУЛИНО-КОН КИСЕЛА ВОДА",41.952587127686,21.422142028809
385,201,"СОПИШТЕ МУЛИНО-КОН ДОБРИ ДОЛ",41.952125549316,21.421909332275
386,202,"СОПИШТЕ Т-ПОЧЕТНА",41.948341369629,21.416749954224
387,203,"СОПИШТЕ Т-КРАЈНА",41.948497772217,21.416770935059
388,204,"ЦРКВА СВ.ПЕТКА-КОН ЦЕНТАР",41.986560821533,21.43034362793
389,205,"ЦРКВА СВ.ПЕТКА-КОН ЦРНИЧЕ",41.986961364746,21.43087387085
390,206,"ЦРНИЧЕ РЕПТИЛ-КОН ЦЕНТАР",41.984283447266,21.427825927734
391,207,"ЦРНИЧЕ РЕПТИЛ-КОН ПРЖИНО",41.983909606934,21.428590774536
392,208,"ЦРНИЧЕ-КОН ЦЕНТАР",41.982421875,21.431686401367
393,209,"ЦРНИЧЕ-КОН ПРЖИНО",41.981414794922,21.431915283203
394,210,"ПРЖИНО БУНАР-КОН ЦЕНТАР",41.978687286377,21.433855056763
395,211,"ПРЖИНО БУНАР-КОН Т",41.979446411133,21.43275642395
396,212,"ПРЖИНО Т",41.976531982422,21.433166503906
397,213,"ТЦ РАМСТОР",41.992324829102,21.42692565918
398,214,"МАЛА СТАНИЦА",41.991165161133,21.425354003906
399,215,"СТАРА ЖЕЛЕЗНИЧКА СТАНИЦА",41.990997314453,21.429885864258
400,216,"ЈУЖЕН БУЛЕВАР",41.988616943359,21.430923461914
401,217,"ТУТУНСКА БАНКА",41.992511749268,21.42441368103
402,218,"ЕВРОПСКИ УНИВЕРЗИТЕТ",41.994239807129,21.424482345581
403,219,"КЛИНИЧКИ ЦЕНТАР Т9",41.988754272461,21.418563842773
404,220,"КЛИНИЧКИ ЦЕНТАР Т50",41.989013671875,21.418991088867
405,221,"КЛИНИЧКИ ЦЕНТАР Т3",41.989166259766,21.419296264648
406,222,"КЛИНИЧКИ ЦЕНТАР Т-КРАЈНА",41.989532470703,21.419281005859
407,223,"ВОДНО ПОЛИЦИСКА СТАНИЦА-КОН ЦЕНТАР",41.985412597656,21.418395996094
408,224,"ВОДНО ПОЛИЦИСКА СТАНИЦА-КОН СРЕДНО ВОДНО",41.983898162842,21.418720245361
409,225,"ПАНОРАМА Т",41.982322692871,21.422073364258
415,231,"КАПИШТЕЦ ЖИТО ЛУКС-КОН ЦЕНТАР",41.992340087891,21.42041015625
416,232,"КАПИШТЕЦ ТЦ ЗЕБРА-КОН КОЗЛЕ",41.992427825928,21.421232223511
417,233,"АГЕНЦИЈА ЗА ВРАБОТУВАЊЕ-КОН ЦЕНТАР",41.993179321289,21.413208007812
418,234,"АГЕНЦИЈА ЗА ВРАБОТУВАЊЕ-КОН КОЗЛЕ",41.993286132812,21.413528442383
419,235,"КАПИШТЕЦ ЦРКВА-КОН ЦЕНТАР",41.993377685547,21.408367156982
420,236,"КАПИШТЕЦ ЦРКВА-КОН КОЗЛЕ",41.993663787842,21.408958435059
421,237,"СУ ЛАЗАР ТАНЕВ-КОН ЦЕНТАР",41.993835449219,21.401016235352
422,238,"СУ ЛАЗАР ТАНЕВ-КОН КОЗЛЕ",41.994003295898,21.402084350586
423,239,"КОЗЛЕ БЕНЗИНСКА-КОН ЦЕНТАР",41.994781494141,21.395431518555
424,240,"КОЗЛЕ БЕНЗИНСКА-КОН ЖДАНЕЦ",41.995342254639,21.393865585327
425,241,"КОЗЛЕ РЕПЛЕК-КОН ЦЕНТАР",41.997573852539,21.384780883789
426,242,"КОЗЛЕ РЕПЛЕК-КОН Т",41.997505187988,21.385124206543
427,243,"СРЕДНО НЕРЕЗИ Т",41.998641967773,21.379196166992
428,244,"ДОМ НА ПЕЧАТ Т-ПОЧЕТНА",41.993057250977,21.422348022461
429,245,"ДОМ НА ПЕЧАТ Т-КРАЈНА",41.992980957031,21.422241210938
430,246,"АМСМ-КОН ЦЕНТАР",41.994850158691,21.421466827393
431,247,"АМСМ-КОН ЃОРЧЕ ПЕТРОВ",41.994918823242,21.420810699463
432,248,"КАТОЛИЧКА ЦРКВА-КОН ЦЕНТАР",41.994659423828,21.416627883911
433,249,"КАТОЛИЧКА ЦРКВА-КОН ЃОРЧЕ ПЕТРОВ",41.994731903076,21.416610717773
434,250,"Ф-КА ТРЕСКА-КОН ЦЕНТАР",41.99560546875,21.409996032715
435,251,"Ф-КА ТРЕСКА-КОН ЃОРЧЕ ПЕТРОВ",41.995807647705,21.409921646118
436,252,"БУЛ.ТЕОДОСИЈ ГОЛОГАНОВ ВЕРО-КОН ЦЕНТАРG",41.996040344238,21.406692504883
437,253,"БУЛ.ТЕОДОСИЈ ГОЛОГАНОВ ВЕРО-КОН ЃОРЧЕ G",41.996166229248,21.406869888306
438,254,"Ф-КА АЛУМИНА-КОН ЦЕНТАР",41.996627807617,21.401779174805
439,255,"Ф-КА АЛУМИНА-КОН ЃОРЧЕ ПЕТРОВ",41.996978759766,21.400772094727
440,256,"ТАФТАЛИЏЕ-КОН ЦЕНТАР",41.99772644043,21.393951416016
441,257,"ТАФТАЛИЏЕ-КОН ЃОРЧЕ ПЕТРОВ",41.997940063477,21.394027709961
442,258,"СТ.ДОМ ГОЦЕ ДЕЛЧЕВ-КОН ЦЕНТАР",41.998260498047,21.389785766602
443,259,"СТ.ДОМ ГОЦЕ ДЕЛЧЕВ-КОН ЃОРЧЕ ПЕТРОВ",41.99825668335,21.390735626221
444,260,"СЦ ФОРЦА",41.999263763428,21.391651153564
445,261,"ТАФТАЛИЏЕ ТОПЛИФИКАЦИЈА Т",42.002426147461,21.39225769043
446,262,"ПОРТА КОЗЛЕ",41.998851776123,21.386173248291
447,263,"Ф-КА РЕПЛЕК-КОН ЦЕНТАР",41.999134063721,21.384197235107
448,264,"Ф-КА РЕПЛЕК-КОН ЃОРЧЕ ПЕТРОВ",41.999382019043,21.382684707642
449,265,"ХРОМ МОСТ",42.00072479248,21.378326416016
450,266,"ХРОМ ТИНЕКС-КОН ЦЕНТАР",42.003524780273,21.373748779297
451,267,"ХРОМ ТИНЕКС-КОН ЃОРЧЕ ПЕТРОВ",42.003234863281,21.374834060669
452,268,"ХРОМ ВЛАЕ-КОН ЦЕНТАР",42.006072998047,21.369140625
453,269,"ХРОМ ВЛАЕ-КОН ЃОРЧЕ ПЕТРОВ",42.006423950195,21.368993759155
454,270,"ПОРТА БУЊАКОВЕЦ",41.99836730957,21.423522949219
455,271,"СОБОРЕН ХРАМ",41.998611450195,21.423919677734
456,272,"ТЦ БУЊАКОВЕЦ",41.999359130859,21.418716430664
457,273,"ГРАДЕЖЕН ФАКУЛТЕТ",41.999618530273,21.418869018555
458,274,"МАЛ ОДМОР ",42.00080871582,21.411743164062
459,275,СИМПО,42.001007080078,21.411972045898
460,276,"КАРПОШ 2",42.001617431641,21.405853271484
461,277,"ХОТЕЛ КАРПОШ",42.001739501953,21.406051635742
462,278,"ПОЛИКЛИНИКА БУКУРЕШТ-КОН ЦЕНТАР",42.002380371094,21.399856567383
463,279,"ПОЛИКЛИНИКА БУКУРЕШТ-КОН ВЛАЕ",42.002624511719,21.400299072266
464,280,"БОЛНИЦА 8МИ СЕПТЕМВРИ",42.004165649414,21.401779174805
465,281,"КАРПОШ 3 БЕНЗИНСКА-КОН ЦЕНТАР",42.002822875977,21.396408081055
466,282,"КАРПОШ 3 БЕНЗИНСКА-КОН ВЛАЕ",42.003288269043,21.395080566406
467,283,"КАРПОШ 3 ТЦ СИТИ МОЛ Т",42.004348754883,21.392900466919
468,284,"АРХИВ НА ГРАД СКОПЈЕ",42.003540039062,21.391330718994
469,285,"ТЦ СИТИ МОЛ",42.003753662109,21.391494750977
470,286,"ТАФТАЛИЏЕ ПАЗАР-КОН ЦЕНТАР",42.001369476318,21.389986038208
471,287,"ТАФТАЛИЏЕ ПАЗАР-КОН Т",42.001323699951,21.389696121216
472,288,"ТАФТАЛИЏЕ Т",42.001480102539,21.384475708008
473,289,"КАРПОШ 4 ТЦ СИТИ МОЛ Т",42.005783081055,21.390823364258
474,290,"ДОЛНО НЕРЕЗИ-КОН ЦЕНТАР",42.00456237793,21.383987426758
475,291,"ДОЛНО НЕРЕЗИ-КОН ВЛАЕ",42.004730224609,21.384735107422
476,292,"ВЛАЕ-КОН ЦЕНТАР",42.007026672363,21.374193191528
477,293,"ВЛАЕ-КОН ЃОРЧЕ ПЕТРОВ",42.006607055664,21.376571655273
478,294,"ВЛАЕ ПОРТА-КОН ЦЕНТАР",42.008148193359,21.369918823242
479,295,"ВЛАЕ ПОРТА-КОН ЃОРЧЕ ПЕТРОВ",42.008407592773,21.369903564453
481,297,"ХРОМ ЗГРАДИ-КОН ЦЕНТАР",42.005046844482,21.367723464966
482,298,"ХРОМ ЗГРАДИ-КОН Т",42.005249023438,21.367126464844
483,299,"ОУ ДИМИТАР ПОП ГЕОРГИЕВ БЕРОВСКИ-КОН ЦG",42.004043579102,21.370025634766
484,300,"ОУ ДИМИТАР ПОП ГЕОРГИЕВ БЕРОВСКИ-КОН ТG",42.003692626953,21.370422363281
485,301,"ХРОМ Т",42.001495361328,21.373428344727
486,302,"ЃОРЧЕ ПЕТРОВ СТАР ПАЗАР-КОН ЦЕНТАР",42.006645202637,21.363437652588
487,303,"ЃОРЧЕ ПЕТРОВ СТАР ПАЗАР-КОН САРАЈ",42.006973266602,21.364330291748
488,304,"ЃОРЧЕ ПЕТРОВ КИНО-КОН ЦЕНТАР",42.006645202637,21.35884475708
489,305,"ЃОРЧЕ ПЕТРОВ КИНО-КОН САРАЈ",42.006832122803,21.359596252441
490,306,"ЈУГОХРОМСКИ ЗГРАДИ-КОН ЦЕНТАР",42.00643157959,21.354995727539
491,307,"ЈУГОХРОМСКИ ЗГРАДИ-КОН САРАЈ",42.006649017334,21.354135513306
492,308,"ОПШТИНА ЃОРЧЕ ПЕТРОВ-КОН ЦЕНТАР",42.006225585938,21.351715087891
493,309,"ОПШТИНА ЃОРЧЕ ПЕТРОВ-КОН САРАЈ",42.006191253662,21.349264144897
494,310,"ЈУРИЈА-КОН ЦЕНТАР",42.005973815918,21.347013473511
495,311,"ЈУРИЈА-КОН САРАЈ",42.006286621094,21.343713760376
496,312,"ДЕКСИОН-КОН ЦЕНТАР",42.006866455078,21.341033935547
497,313,"ДЕКСИОН -КОН САРАЈ",42.007129669189,21.33911895752
498,314,"ЃОРЧЕ ПЕТРОВ АДИНГ",42.00764465332,21.340106964111
499,315,"ДЕКСИОН Т",42.010620117188,21.340103149414
500,316,"ЃОРЧЕ ПЕТРОВ МАКПЕТРОЛ-КОН ЦЕНТАР",42.0068359375,21.334447860718
501,317,"ЃОРЧЕ ПЕТРОВ МАКПЕТРОЛ-КОН САРАЈ",42.006885528564,21.334218978882
502,318,"САРАЈ РЕКРЕАТИВЕН ЦЕНТАР-КОН ЃОРЧЕ ПЕТG",42.002914428711,21.331537246704
503,319,"САРАЈ РЕКРЕАТИВЕН ЦЕНТАР-КОН МАТКА",42.002979278564,21.331527709961
504,320,"САРАЈ ПАТ ЗА ЉУБИН-КОН ЃОРЧЕ ПЕТРОВ",41.999526977539,21.327842712402
505,321,"САРАЈ ПАТ ЗА ЉУБИН-КОН МАТКА",42.000198364258,21.32861328125
506,322,"САРАЈ Т-ПОЧЕТНА",41.99772644043,21.325668334961
507,323,"САРАЈ Т-КРАЈНА",41.997886657715,21.325639724731
508,324,"ЕЗЕРО ТРЕСКА-КОН САРАЈ",41.991065979004,21.317113876343
509,325,"ЕЗЕРО ТРЕСКА-КОН МАТКА",41.990821838379,21.316982269287
510,326,"ГЛУМОВО-КОН САРАЈ",41.981559753418,21.307779312134
511,327,"ГЛУМОВО-КОН МАТКА",41.981616973877,21.307746887207
512,328,"ШИШЕВО Т",41.979259490967,21.309000015259
513,329,"ПОШТА ГРАДСКИ ЅИД",41.998264312744,21.428556442261
514,330,"ПОШТА ТЕЛЕКОМ",41.997894287109,21.428651809692
515,331,"ВЛАДА НА РМ-КОН ЦЕНТАР",41.999496459961,21.428436279297
516,332,"ВЛАДА НА РМ-КОН ВЛАЕ",41.999603271484,21.428817749023
517,333,"ДЕБАР МААЛО МАТИЧНО",42.002994537354,21.421577453613
518,334,"ГРАДСКИ ПАРК ФОНТАНА",42.002521514893,21.422702789307
519,335,"ЗООЛОШКА ГРАДИНА-КОН ЦЕНТАР",42.004947662354,21.417459487915
520,336,"ЗООЛОШКА ГРАДИНА-КОН ВЛАЕ",42.005798339844,21.41650390625
521,337,"ГИМ.ОРЦЕ НИКОЛОВ-КОН ЦЕНТАР",42.006660461426,21.411926269531
522,338,"ГИМ.ОРЦЕ НИКОЛОВ-КОН ВЛАЕ",42.006885528564,21.410654067993
523,339,"АВТОСАЛОН МИ-ДА",42.006679534912,21.406965255737
524,340,"БАЗЕН КАРПОШ",42.007179260254,21.404653549194
525,341,"ОУ ЛАЗО ТРПОВСКИ",42.007041931152,21.400085449219
526,342,"ФК ЛОКОМОТИВА",42.007579803467,21.398145675659
527,343,"РЕСТОРАН ИМЕС-КОН ЦЕНТАР",42.007465362549,21.394298553467
528,344,"РЕСТОРАН ИМЕС-КОН ВЛАЕ",42.007846832275,21.39436340332
529,345,"КАРПОШ 4-КОН ЦЕНТАР",42.00817489624,21.38897895813
530,346,"КАРПОШ 4-КОН ВЛАЕ",42.008247375488,21.389196395874
531,347,"СТАРА ТЕЛЕВИЗИЈА-КОН ЦЕНТАР",42.006782531738,21.383543014526
532,348,"СТАРА ТЕЛЕВИЗИЈА-КОН ВЛАЕ",42.007034301758,21.38342666626
535,351,"ЃОРЧЕ ПЕТРОВ ПАЗАР-КОН ВОЛКОВО",42.009689331055,21.364669799805
536,352,"ЃОРЧЕ ПЕТРОВ ПОЛИКЛИНИКА",42.009948730469,21.362365722656
537,353,"КАСАРНА ДАМЕ ГРУЕВ-КОН ЃОРЧЕ ПЕТРОВ",42.016109466553,21.357553482056
538,354,"КАСАРНА ДАМЕ ГРУЕВ-КОН ВОЛКОВО",42.017105102539,21.356597900391
539,355,"ОУ СТРАШО ПИНЏУР-КОН ЃОРЧЕ ПЕТРОВ",42.019577026367,21.353286743164
540,356,"ОУ СТРАШО ПИНЏУР-КОН ВОЛКОВО",42.019111633301,21.354248046875
541,357,"ВОЕН ОТПАД-КОН ЃОРЧЕ ПЕТРОВ",42.020797729492,21.352035522461
542,358,"ВОЕН ОТПАД-КОН ВОЛКОВО",42.021850585938,21.351089477539
543,359,"НОВО СЕЛО МАКПЕТРОЛ-КОН ЃОРЧЕ ПЕТРОВ",42.02555847168,21.350818634033
544,360,"НОВО СЕЛО МАКПЕТРОЛ-КОН ВОЛКОВО",42.025695800781,21.351455688477
545,361,"НОВО СЕЛО-КОН ЃОРЧЕ ПЕТРОВ",42.028636932373,21.353519439697
546,362,"НОВО СЕЛО-КОН ВОЛКОВО",42.028221130371,21.353628158569
547,363,"ОУ ТИХОМИР МИЛОШЕВСКИ-КОН ЃОРЧЕ ПЕТРОВG",42.03080368042,21.349119186401
548,364,"ОУ ТИХОМИР МИЛОШЕВСКИ-КОН ВОЛКОВО",42.03099822998,21.348930358887
551,367,"ВОЛКОВО ШКОРПИОН-КОН ЃОРЧЕ ПЕТРОВ",42.037750244141,21.348693847656
552,368,"ВОЛКОВО ШКОРПИОН-КОН ЛЕПЕНЕЦ",42.037059783936,21.348840713501
553,369,"ВОЛКОВО НОВА НАСЕЛБА-КОН ЃОРЧЕ ПЕТРОВ",42.040374755859,21.34748840332
554,370,"ВОЛКОВО НОВА НАСЕЛБА-КОН ЛЕПЕНЕЦ",42.040313720703,21.347686767578
555,371,"Ф-КА СКОПЈАНКА-КОН ЃОРЧЕ ПЕТРОВ",42.042404174805,21.347015380859
556,372,"Ф-КА СКОПЈАНКА-КОН ЛЕПЕНЕЦ",42.042678833008,21.347152709961
557,373,"ВОЛКОВО-КОН ЃОРЧЕ ПЕТРОВ",42.045745849609,21.346969604492
558,374,"ВОЛКОВО-КОН ЛЕПЕНЕЦ",42.045806884766,21.346527099609
559,375,"ЛЕПЕНЕЦ 1-КОН ВОЛКОВО",42.045021057129,21.350036621094
560,376,"ЛЕПЕНЕЦ 1-КОН Т",42.044662475586,21.35033416748
561,377,"ЛЕПЕНЕЦ РАМПА-КОН ВОЛКОВО",42.044452667236,21.353662490845
562,378,"ЛЕПЕНЕЦ РАМПА-КОН Т",42.044288635254,21.353792190552
563,379,"ЛЕПЕНЕЦ 2-КОН ВОЛКОВО",42.044631958008,21.357727050781
564,380,"ЛЕПЕНЕЦ 2-КОН Т",42.044631958008,21.357971191406
565,381,"ЛЕПЕНЕЦ Т-ПОЧЕТНА",42.0458984375,21.364486694336
566,382,"ЛЕПЕНЕЦ Т-КРАЈНА",42.045848846436,21.364549636841
567,383,"ТЕХНОГАС-КОН ВЛАЕ",42.009399414062,21.370178222656
568,384,"ТЕХНОГАС-КОН БАРДОВЦИ",42.009201049805,21.370056152344
569,385,"ВЛАЕ РЕКА ЛЕПЕНЕЦ-КОН ВЛАЕ",42.010971069336,21.37532043457
570,386,"ВЛАЕ РЕКА ЛЕПЕНЕЦ-КОН БАРДОВЦИ",42.010818481445,21.375534057617
571,387,"ТВ КАНАЛ 5-КОН ВЛАЕ",42.014297485352,21.383773803711
572,388,"ТВ КАНАЛ 5-КОН БАРДОВЦИ",42.013702392578,21.382614135742
573,389,"ПСИХИЈАТРИСКА БОЛНИЦА БАРДОВЦИ ",42.016738891602,21.374881744385
574,390,"ЗЛОКУЌАНИ-КОН ВЛАЕ",42.01354598999,21.390958786011
575,391,"ЗЛОКУЌАНИ-КОН БАРДОВЦИ",42.013229370117,21.390428543091
576,392,"СКУПИ-КОН ЦЕНТАР",42.015216827393,21.393730163574
577,393,"СКУПИ-КОН БАРДОВЦИ",42.014949798584,21.3938331604
578,394,"ЗЛОКУЌАНИ СТАРСКИ ДОМ-КОН ЦЕНТАР",42.016204833984,21.39093208313
579,395,"ЗЛОКУЌАНИ СТАРСКИ ДОМ-КОН БАРДОВЦИ",42.016361236572,21.39084815979
580,396,"БАРДОВЦИ МОСТ-КОН ЦЕНТАР",42.022754669189,21.385648727417
581,397,"БАРДОВЦИ МОСТ-КОН КОНАК",42.022838592529,21.385711669922
582,398,"БАРДОВЦИ УЧИЛИШТЕ-КОН ЦЕНТАР",42.025680541992,21.381713867188
583,399,"БАРДОВЦИ УЧИЛИШТЕ-КОН КОНАК",42.025863647461,21.382278442383
584,400,"БАРДОВЦИ ИГРАЛИШТЕ-КОН ЦЕНТАР",42.025375366211,21.378112792969
585,401,"БАРДОВЦИ ИГРАЛИШТЕ-КОН КОНАК",42.025375366211,21.378387451172
586,402,"БАРДОВЦИ-КОН ЦЕНТАР",42.025966644287,21.375217437744
587,403,"БАРДОВЦИ-КОН КОНАК",42.026557922363,21.374851226807
588,404,"БАРДОВЦИ КОНАК Т",42.028087615967,21.372610092163
591,407,"ХОТЕЛ АЛЕКСАНДАР ПАЛАС-КОН ЦЕНТАР",42.01057434082,21.406789779663
592,408,"ХОТЕЛ АЛЕКСАНДАР ПАЛАС-КОН МОМИН ПОТОКG",42.010803222656,21.407073974609
597,413,"ЖЕНА ПАРК",41.993453979492,21.434844970703
598,414,"РАБОТНИЧКИ ДОМ",41.993988037109,21.436538696289
599,415,МНТ,41.997798919678,21.438064575195
600,416,"ОУ СВ.КИРИЛ И МЕТОДИЈ",41.997756958008,21.438217163086
602,418,"МОСТ ГОЦЕ ДЕЛЧЕВ ТЕАТАР",41.999130249023,21.43293762207
603,419,"МОСТ ГОЦЕ ДЕЛЧЕВ КАЛЕ",41.99946975708,21.432777404785
604,420,"ЦРКВА ПРЕСВЕТА БОГОРОДИЦА",41.99626159668,21.440505981445
605,421,МАНУ,41.996398925781,21.440841674805
606,422,"НАЦИОНАЛНА И УНИВЕРЗИТЕТСКА БИБЛИОТЕКАG",41.998153686523,21.440292358398
607,423,"БИТПАЗАР 5 ТЦ МАВРОВКА",42.00074005127,21.439960479736
608,424,"БИТПАЗАР 4 ПАЗАР",42.001850128174,21.439699172974
609,425,"БИТПАЗАР 1 УНИВЕРЗИТЕТ СВ.КИРИЛ И МЕТОG",42.000118255615,21.440269470215
610,426,"БИТПАЗАР 2 ТЦ",42.001110076904,21.4400806427
611,427,"БИТПАЗАР 3 ПРИГРАДСКИ ЛИНИИ",42.001819610596,21.439970016479
612,428,"ПЛАСТИЧАРСКА УЛИЦА-КОН АВТОКОМАНДА",42.00830078125,21.43408203125
613,429,"ПЛАСТИЧАРСКА УЛИЦА-КОН МОМИН ПОТОК",42.008361816406,21.434341430664
619,435,"ТОПАНСКО ПОЛЕ ПЛАСТИЧАРСКА-КОН ЦЕНТАР",42.013824462891,21.431228637695
620,436,"ТОПАНСКО ПОЛЕ ПЛАСТИЧАРСКА-КОН ШУТО ОРG",42.014030456543,21.431360244751
621,437,"ТОПАНСКО ПОЛЕ БЕНЗИНСКА-КОН ЦЕНТАР",42.019012451172,21.430810928345
622,438,"ТОПАНСКО ПОЛЕ БЕНЗИНСКА-КОН ШУТО ОРИЗАG",42.019500732422,21.43083190918
623,439,"ТОПАНСКО ПОЛЕ КРСТОСНИЦА-КОН ЦЕНТАР",42.021286010742,21.430465698242
624,440,"ТОПАНСКО ПОЛЕ КРСТОСНИЦА-КОН ШУТО ОРИЗG",42.021808624268,21.43058013916
625,441,"ЈАЈА ПАША ЏАМИЈА-КОН ЦЕНТАР",42.008514404297,21.443237304688
626,442,"ЈАЈА ПАША ЏАМИЈА-КОН БУТЕЛ",42.008697509766,21.443588256836
627,443,"ЧАИР-КОН ЦЕНТАР",42.013206481934,21.44527053833
628,444,"ЧАИР-КОН БУТЕЛ",42.011837005615,21.444946289062
629,445,"ГИМ.ЦВЕТАН ДИМОВ-КОН ЦЕНТАР",42.013408660889,21.438550949097
630,446,"ГИМ.ЦВЕТАН ДИМОВ-КОН ТОПАНСКО ПОЛЕ",42.013389587402,21.438413619995
631,447,"ДОМ ЗА СТАРИ-КОН ЦЕНТАР",42.013084411621,21.43553352356
632,448,"ДОМ ЗА СТАРИ-КОН ТОПАНСКО ПОЛЕ",42.013580322266,21.435012817383
633,449,"СТАРА ДЕВЕТКА-КОН ЦЕНТАР",42.016677856445,21.434432983398
634,450,"СТАРА ДЕВЕТКА-КОН ТОПАНСКО ПОЛЕ",42.016250610352,21.434692382812
635,451,"ТОПАНСКО ПОЛЕ БАНКА-КОН ЦЕНТАР",42.019420623779,21.432430267334
636,452,"ТОПАНСКО ПОЛЕ БАНКА-КОН Т",42.01887512207,21.432525634766
637,453,"ТОПАНСКО ПОЛЕ Т-КОН ЦЕНТАР",42.021469116211,21.433944702148
645,461,"ЧАИР ЗГРАДИ-КОН ЦЕНТАР",42.017883300781,21.447525024414
646,462,"ЧАИР ЗГРАДИ-КОН БУТЕЛ",42.017166137695,21.447540283203
647,463,"ПОЛИКЛИНИКА ЧАИР-КОН ЦЕНТАР",42.021347045898,21.446853637695
648,464,"ПОЛИКЛИНИКА ЧАИР-КОН ШУТО ОРИЗАРИ",42.021484375,21.446853637695
649,465,"ЦРКВА СВ.НИКОЛА-КОН ЦЕНТАР",42.021663665771,21.441083908081
650,466,"ЦРКВА СВ.НИКОЛА-КОН ШУТО ОРИЗАРИ",42.021884918213,21.439779281616
651,467,"ТОПАНСКО ПОЛЕ ТЦ ТРЕСКА-КОН ЦЕНТАР",42.022308349609,21.432830810547
652,468,"ТОПАНСКО ПОЛЕ ТЦ ТРЕСКА-КОН ШУТО ОРИЗАG",42.022426605225,21.432952880859
653,469,"ЦИГЛАНА-КОН ЦЕНТАР",42.026321411133,21.429489135742
654,470,"ЦИГЛАНА-КОН ШУТО ОРИЗАРИ",42.026321411133,21.429641723633
655,471,"ШУТО ОРИЗАРИ ЗАТВОР",42.031753540039,21.428007125854
656,472,"ШУТО ОРИЗАРИ ЖИТО ЛУКС",42.031066894531,21.428415298462
657,473,"ОУ 26ТИ ЈУЛИ-КОН ЦЕНТАР",42.036651611328,21.425777435303
658,474,"ОУ 26ТИ ЈУЛИ-КОН ШУТО ОРИЗАРИ",42.035991668701,21.426006317139
659,475,"ШУТО ОРИЗАРИ ПАЗАР-КОН ЦЕНТАР",42.039260864258,21.424510955811
660,476,"ШУТО ОРИЗАРИ ПАЗАР-КОН Т",42.039066314697,21.424711227417
661,477,"ШУТО ОРИЗАРИ ЦЕНТАР-КОН ЦЕНТАР",42.042182922363,21.423664093018
662,478,"ШУТО ОРИЗАРИ ЦЕНТАР-КОН Т",42.042129516602,21.423809051514
663,479,"ШУТО ОРИЗАРИ Т-ПОЧЕТНА",42.044830322266,21.427080154419
664,480,"ШУТО ОРИЗАРИ Т-КРАЈНА",42.044784545898,21.427215576172
665,481,"СУ АРСЕНИЕ ЈОВКОВ-КОН ЦЕНТАР",42.022567749023,21.442962646484
666,482,"СУ АРСЕНИЕ ЈОВКОВ-КОН БУТЕЛ",42.022933959961,21.444946289062
670,486,"БУТЕЛ СТАРО КИНО-КОН ЦЕНТАР",42.021926879883,21.449081420898
671,487,"БУТЕЛ СТАРО КИНО-КОН РАДИШАНИ",42.02197265625,21.449508666992
672,488,"БУТЕЛ СТАРА ОПШТИНА-КОН ЦЕНТАР",42.024719238281,21.445980072021
673,489,"БУТЕЛ СТАРА ОПШТИНА-КОН РАДИШАНИ",42.024856567383,21.446502685547
674,490,"БУТЕЛ МАКЕДОНИЈАЛЕК-КОН ЦЕНТАР",42.027866363525,21.443868637085
675,491,"БУТЕЛ МАКЕДОНИЈАЛЕК-КОН ГРОБИШТА",42.02779006958,21.443895339966
676,492,"БУТЕЛ ВОДОВОД-КОН ЦЕНТАР",42.030372619629,21.435567855835
677,493,"БУТЕЛ ВОДОВОД-КОН ГРОБИШТА",42.030563354492,21.435499191284
678,494,"ГРОБИШТА БУТЕЛ КАПЕЛА",42.032775878906,21.436071395874
679,495,"ГРОБИШТА БУТЕЛ ЦВЕЌАРИ",42.032619476318,21.436178207397
680,496,"ГРОБИШТА БУТЕЛ КРСТОСНИЦА-КОН ЦЕНТАР",42.038101196289,21.437158584595
681,497,"ГРОБИШТА БУТЕЛ КРСТОСНИЦА-КОН К.БАРА",42.038005828857,21.437265396118
682,498,"ПАТ ЗА КУЧЕВИШКА БАРА-КОН ЦЕНТАР",42.042572021484,21.437103271484
683,499,"ПАТ ЗА КУЧЕВИШКА БАРА-КОН К.БАРА",42.042633056641,21.437393188477
684,500,"КУЧЕВИШКА БАРА НАДВОЗНИК-КОН ЦЕНТАР",42.044868469238,21.437065124512
685,501,"КУЧЕВИШКА БАРА НАДВОЗНИК-КОН К.БАРА",42.044944763184,21.437198638916
686,502,"КУЧЕВИШКА БАРА 1-КОН БУТЕЛ",42.050022125244,21.436521530151
687,503,"КУЧЕВИШКА БАРА 1-КОН Т",42.049949645996,21.436840057373
688,504,"КУЧЕВИШКА БАРА 2-КОН БУТЕЛ",42.053665161133,21.435543060303
689,505,"КУЧЕВИШКА БАРА 2-КОН Т",42.053726196289,21.43560218811
690,506,"КУЧЕВИШКА БАРА 3-КОН БУТЕЛ",42.058544158936,21.434335708618
691,507,"КУЧЕВИШКА БАРА 3-КОН Т",42.05850982666,21.434383392334
692,508,"КУЧЕВИШКА БАРА Т",42.063411712646,21.433658599854
693,509,"БУТЕЛ КРУЖЕН ТЕК-КОН ЦЕНТАР",42.028503417969,21.444549560547
694,510,"БУТЕЛ КРУЖЕН ТЕК-КОН РАДИШАНИ",42.029079437256,21.444898605347
695,511,"БУТЕЛ ПАЗАР-КОН ЦЕНТАР",42.031784057617,21.445114135742
696,512,"БУТЕЛ ПАЗАР-КОН РАДИШАНИ",42.03288269043,21.445541381836
697,513,"БУТЕЛ ПОЛИЦИСКА СТАНИЦА-КОН ЦЕНТАР",42.036270141602,21.44612121582
698,514,"БУТЕЛ ПОЛИЦИСКА СТАНИЦА-КОН РАДИШАНИ",42.036769866943,21.446395874023
699,515,"С.БУТЕЛ-КОН ЦЕНТАР",42.040786743164,21.448852539062
700,516,"С.БУТЕЛ-КОН РАДИШАНИ",42.040603637695,21.448974609375
701,517,"ОПИТНО СТОПАНСТВО-КОН ЦЕНТАР",42.045745849609,21.449081420898
702,518,"ОПИТНО СТОПАНСТВО-КОН РАДИШАНИ",42.045745849609,21.449264526367
703,519,"РАДИШАНИ РАСАДНИК-КОН ЦЕНТАР",42.048080444336,21.449554443359
704,520,"РАДИШАНИ РАСАДНИК-КОН ЉУБАНЦИ",42.048622131348,21.449871063232
705,521,"РАДИШАНИ МОСТ-КОН ЦЕНТАР",42.051895141602,21.450347900391
706,522,"РАДИШАНИ МОСТ-КОН ЉУБАНЦИ",42.051620483398,21.450553894043
707,523,"РАДИШАНИ БЕЛ КАМЕН",42.055038452148,21.450836181641
708,524,"РАДИШАНИ БЕНЗИНСКА",42.055847167969,21.451278686523
709,525,"РАДИШАНИ ПРВ ВЛЕЗ-КОН ЦЕНТАР",42.058959960938,21.451110839844
710,526,"РАДИШАНИ ПРВ ВЛЕЗ-КОН ЉУБАНЦИ",42.058628082275,21.451305389404
711,527,"РАДИШАНИ ГРАДИНКА",42.061431884766,21.451126098633
712,528,"ОУ АЦО ШОПОВ",42.063095092773,21.451370239258
713,529,"РАДИШАНИ ТРЕТ ВЛЕЗ-КОН ЦЕНТАР",42.064392089844,21.451110839844
714,530,"РАДИШАНИ ТРЕТ ВЛЕЗ-КОН ЉУБАНЦИ",42.065433502197,21.451541900635
715,531,"РАДИШАНИ ПИЛАНА-КОН ЦЕНТАР",42.070526123047,21.449890136719
716,532,"РАДИШАНИ ПИЛАНА-КОН ЉУБАНЦИ",42.070964813232,21.44993019104
717,533,"РАДИШАНИ ЦРКВА Т-ПОЧЕТНА",42.07368850708,21.448518753052
718,534,"РАДИШАНИ ЦРКВА Т-КРАЈНА",42.073699951172,21.448659896851
719,535,"ЉУБОТЕНСКИ ПАТ КРСТОСНИЦА-КОН БУТЕЛ",42.042221069336,21.455017089844
720,536,"ЉУБОТЕНСКИ ПАТ КРСТОСНИЦА-КОН Т",42.042221069336,21.455474853516
721,537,"ЉУБОТЕНСКИ ПАТ-КОН БУТЕЛ",42.041748046875,21.460723876953
722,538,"ЉУБОТЕНСКИ ПАТ-КОН Т",42.041633605957,21.460966110229
723,539,"ЉУБОТЕНСКИ ПАТ Т",42.042976379395,21.46035194397
735,551,СВЕТЛОСТ,42.002899169922,21.443923950195
736,552,"ОУ БИТОЛСКИ КОНГРЕС",42.001991271973,21.444477081299
737,553,"ОПШТИНА ГАЗИ БАБА",41.99951171875,21.452760696411
738,554,"ХОТЕЛ КОНТИНЕНТАЛ",41.999397277832,21.452930450439
739,555,"ШУМАРСКИ ФАКУЛТЕТ",42.000610351562,21.458852767944
740,556,МЕРКУР,42.000896453857,21.460739135742
741,557,"ВЕТЕРИНАРЕН ИНСТИТУТ",42.002006530762,21.459999084473
742,558,"ЖЕЛЕЗАРА СТАДИОН",42.006195068359,21.462860107422
743,559,"ЖЕЛЕЗАРА УЧИЛИШЕН ЦЕНТАР",42.005672454834,21.46265411377
744,560,"ЖЕЛЕЗАРА ЗГРАДИ-КОН ЦЕНТАР",42.011474609375,21.458984375
745,561,"ЖЕЛЕЗАРА ЗГРАДИ-КОН Т",42.010589599609,21.46012878418
746,562,"ЖЕЛЕЗАРА Т-ПОЧЕТНА",42.01456451416,21.456443786621
747,563,"ЖЕЛЕЗАРА Т-КРАЈНА",42.014633178711,21.456455230713
748,564,"АВТОКОМАНДА Т",42.001647949219,21.463943481445
749,565,"СС АВТОКОМАНДА",42.001770019531,21.464630126953
750,566,АЛКАЛОИД,42.001651763916,21.465839385986
751,567,"АВТОДРОМ-КОН ЦЕНТАР",42.002914428711,21.470779418945
752,568,"АВТОДРОМ-КОН МАЏАРИ",42.002517700195,21.47053527832
753,569,"АВТОКОМАНДА МАКПЕТРОЛ",42.004291534424,21.478256225586
754,570,"СУ МИХАЈЛО ПУПИН",42.003082275391,21.478958129883
755,571,"МАЏАРИ КРСТОСНИЦА-КОН ЦЕНТАР",42.001537322998,21.485618591309
756,572,"МАЏАРИ КРСТОСНИЦА-КОН ХИПОДРОМ",42.000823974609,21.485071182251
757,573,"АГРОСЕРВИС-КОН ЦЕНТАР",42.003402709961,21.491165161133
758,574,"АГРОСЕРВИС-КОН ЧЕНТО",42.003009796143,21.490602493286
759,575,"ТРИ КУЌИ-КОН ЦЕНТАР",42.003726959229,21.494115829468
760,576,"ТРИ КУЌИ-КОН ЧЕНТО",42.003742218018,21.493927001953
761,577,"ЧЕНТО МАГАЦИНИ-КОН СИНГЕЛИЌ",42.00492477417,21.500804901123
762,578,"ЧЕНТО ПАЗАР-КОН ЦЕНТАР",42.005851745605,21.502508163452
763,579,"ЧЕНТО-ПАЗАР-КОН СИНГЕЛИЌ",42.006683349609,21.504217147827
772,588,"ЧЕНТО БЕНЗИНСКА-КОН ЦЕНТАР",42.011810302734,21.509506225586
773,589,"ЧЕНТО БЕНЗИНСКА-КОН СИНГЕЛИЌ",42.01155090332,21.509536743164
774,590,"СИНГЕЛИЌ-КОН ЧЕНТО",42.016048431396,21.512077331543
775,591,"СИНГЕЛИЌ-КОН СТАЈКОВЦИ",42.015998840332,21.511993408203
776,592,"СИНГЕЛИЌ ЏАМИЈА-КОН ЧЕНТО",42.018463134766,21.513549804688
777,593,"СИНГЕЛИЌ ЏАМИЈА-КОН СТАЈКОВЦИ",42.018493652344,21.513732910156
778,594,"СТАЈКОВЦИ ЗЕМ ПРОМЕТ-КОН ЧЕНТО",42.020713806152,21.514574050903
779,595,"СТАЈКОВЦИ ЗЕМ ПРОМЕТ-КОН РАШТАК",42.020629882812,21.514724731445
780,596,"СТАЈКОВЦИ-КОН ЧЕНТО",42.022663116455,21.514657974243
781,597,"СТАЈКОВЦИ-КОН РАШТАК",42.022583007812,21.514764785767
782,598,"СТАЈКОВЦИ Т",42.02766418457,21.513626098633
783,599,"СТАЈКОВЦИ ОУ КИРИЛ И МЕТОДИЈ-КОН ЧЕНТОG",42.027545928955,21.513399124146
784,600,"СТАЈКОВЦИ ОУ КИРИЛ И МЕТОДИЈ-КОН РАШТАG",42.027565002441,21.513471603394
785,601,"СТАЈКОВЦИ НАДВОЗНИК-КОН ЧЕНТО",42.033660888672,21.511367797852
786,602,"СТАЈКОВЦИ НАДВОЗНИК-КОН РАШТАК",42.033069610596,21.511444091797
787,603,"ЦРЕШЕВО ИЗЛЕЗ",42.047698974609,21.511581420898
788,604,"ЦРЕШЕВО ВЛЕЗ",42.047664642334,21.511932373047
789,605,"ЦРЕШЕВО МОСТ-КОН СТАЈКОВЦИ",42.050956726074,21.510831832886
790,606,"ЦРЕШЕВО МОСТ-КОН Т",42.051067352295,21.510753631592
791,607,"ЦРЕШЕВО Т",42.052494049072,21.511083602905
792,608,"СМИЛКОВЦИ 1-КОН СТАЈКОВЦИ",42.046436309814,21.505933761597
793,609,"СМИЛКОВЦИ 1-КОН Т",42.046535491943,21.505876541138
794,610,"СМИЛКОВЦИ 2-КОН СТАЈКОВЦИ",42.042488098145,21.501174926758
795,611,"СМИЛКОВЦИ 2-КОН Т",42.042465209961,21.50118637085
796,612,"СМИЛКОВЦИ 3-КОН СТАЈКОВЦИ",42.039108276367,21.496980667114
797,613,"СМИЛКОВЦИ 3-КОН Т",42.039257049561,21.497180938721
798,614,"СМИЛКОВЦИ Т",42.035526275635,21.491376876831
799,615,"ПАТ ЗА СТРАЧИНЦИ-КОН СТАЈКОВЦИ",42.042182922363,21.521949768066
800,616,"ПАТ ЗА СТРАЧИНЦИ-КОН Т",42.04207611084,21.521858215332
801,617,"СТРАЧИНЦИ Т",42.0446434021,21.530990600586
803,619,"ЧЕНТО АМБУЛАНТА-КОН ИНЏИКОВО",42.005722045898,21.503555297852
804,620,"ЧЕНТО КАНАЛ-КОН ЦЕНТАР",42.005233764648,21.508590698242
805,621,"ЧЕНТО КАНАЛ-КОН ИНЏИКОВО",42.004974365234,21.508392333984
806,622,"ИНЏИКОВО 1-КОН ЧЕНТО",42.00447845459,21.512422561646
807,623,"ИНЏИКОВО 1-КОН Т",42.004451751709,21.512403488159
808,624,"ИНЏИКОВО ЦРКВА-КОН ЧЕНТО",42.003921508789,21.51628112793
809,625,"ИНЏИКОВО ЦРКВА-КОН Т",42.003887176514,21.516277313232
810,626,"ИНЏИКОВО 2-КОН ЧЕНТО",42.005752563477,21.518119812012
811,627,"ИНЏИКОВО 2-КОН Т",42.005565643311,21.517496109009
812,628,"ИНЏИКОВО ИГРАЛИШТЕ Т",42.005447387695,21.522201538086
813,629,"ИНЏИКОВО 3-КОН ЧЕНТО",42.002227783203,21.519474029541
814,630,"ИНЏИКОВО 3-КОН Т",42.002456665039,21.519031524658
815,631,"ИНЏИКОВО 4-КОН ЧЕНТО",42.000480651855,21.517532348633
816,632,"ИНЏИКОВО 4-КОН Т",42.000522613525,21.517604827881
817,633,"ИНЏИКОВО КАНАЛ Т",41.998863220215,21.516487121582
818,634,"МАЏАРИ КИНО-КОН ЦЕНТАР",41.996688842773,21.499618530273
819,635,"МАЏАРИ КИНО-КОН ЧЕНТО",41.996673583984,21.499694824219
820,636,"МАЏАРИ ХАНИБАЛ-КОН ЦЕНТАР",42.001770019531,21.502466201782
821,637,"МАЏАРИ ХАНИБАЛ-КОН ЧЕНТО",42.002319335938,21.503234863281
822,638,"МАЏАРИ МАКЕДОНИЈА ДРВО-КОН ЦЕНТАР",42.000064849854,21.487468719482
823,639,"МАЏАРИ МАКЕДОНИЈА ДРВО-КОН ХИПОДРОМ",41.999443054199,21.488870620728
824,640,"МАЏАРИ ТЕРМО-КОН ЦЕНТАР",41.997413635254,21.495138168335
825,641,"МАЏАРИ ТЕРМО-КОН ХИПОДРОМ",41.997509002686,21.494548797607
826,642,"МАЏАРИ ПОШТА-КОН ЦЕНТАР",41.995937347412,21.500127792358
827,643,"МАЏАРИ ПОШТА-КОН ХИПОДРОМ",41.99547958374,21.500896453857
828,644,"МАЏАРИ МЛЕКАРА-КОН ЦЕНТАР",41.994598388672,21.503925323486
829,645,"МАЏАРИ МЛЕКАРА-КОН ХИПОДРОМ",41.993587493896,21.505983352661
830,646,"ХИПОДРОМ Т",41.99377822876,21.508571624756
831,647,"МАЏАРИ РАМПА-КОН ЦЕНТАР",41.991893768311,21.508955001831
832,648,"МАЏАРИ РАМПА-КОН ПЕТРОВЕЦ",41.991668701172,21.509187698364
833,649,"ЕРГЕЛЕ-КОН МАЏАРИ",41.986450195312,21.517959594727
834,650,"ЕРГЕЛЕ-КОН ПЕТРОВЕЦ",41.986274719238,21.518096923828
835,651,"ТРУБАРЕВО 1-КОН МАЏАРИ",41.981712341309,21.525983810425
836,652,"ТРУБАРЕВО 1-КОН ПЕТРОВЕЦ",41.981895446777,21.525476455688
837,653,"ТРУБАРЕВО 2-КОН МАЏАРИ",41.980514526367,21.527729034424
838,654,"ТРУБАРЕВО 2-КОН ПЕТРОВЕЦ",41.980323791504,21.528064727783
841,657,ФЕРШПЕД,41.999114990234,21.473205566406
843,659,"КЛАНИЦА ТИНЕКС",41.996776580811,21.477254867554
844,660,ЕЛЕКТРОМЕТАЛ,41.997116088867,21.483963012695
845,661,МЗТ,41.996963500977,21.483215332031
846,662,"КАРАОРМАН-КОН ЦЕНТАР",41.996368408203,21.490539550781
847,663,"КАРАОРМАН-КОН КВАНТАШКИ ПАЗАР",41.996292114258,21.490615844727
848,664,"ВАРДАРИШТЕ ДУРОПАК",41.992542266846,21.492111206055
849,665,"ВАРДАРИШТЕ СТАЦИОНАР",41.992382049561,21.492105484009
850,666,"КВАНТАШКИ ПАЗАР-КОН ЦЕНТАР",41.98962020874,21.49806022644
851,667,"КВАНТАШКИ ПАЗАР-КОН Т",41.989349365234,21.498510360718
852,668,"КВАНТАШКИ ПАЗАР Т-ПОЧЕТНА",41.98722076416,21.503103256226
853,669,"КВАНТАШКИ ПАЗАР Т-КРАЈНА",41.98717880249,21.502914428711
854,670,"АВТОСАЛОН МЕРЦЕДЕС",41.994209289551,21.47566986084
855,671,БРИКОЛАЖ,41.995483398438,21.475761413574
858,674,"УНИВЕРЗИТЕТ СВ.КИРИЛ И МЕТОДИЈ",41.998691558838,21.443384170532
859,675,"МИНИСТЕРСТВО ЗА ПРАВДА",41.998550415039,21.4421043396
860,676,"СКОПСКИ САЕМ Т-ПОЧЕТНА",41.996475219727,21.451385498047
861,677,"СКОПСКИ САЕМ Т-КРАЈНА",41.996337890625,21.451385498047
1985,1001,РАМПА ЛИСИЧЕ-КОН ЦЕНТАР,41.943733215332,21.52702331543
1986,1002,РАМПА ЛИСИЧЕ-КОН Т,41.942985534668,21.526569366455
1987,1003,ЧАТАЛ-КОН ЦЕНТАР,41.949993133545,21.530670166016
1988,1004,ЧАТАЛ-КОН ЛИСИЧЕ,41.950080871582,21.530689239502
1989,1005,ДОЛНО ЛИСИЧЕ АМБУЛАНТА-КОН ЦЕНТАР,41.953311920166,21.531896591187
1990,1006,ДОЛНО ЛИСИЧЕ АМБУЛАНТА-КОН Т,41.953315734863,21.532102584839
1991,1007,ДОЛНО ЛИСИЧЕ НАДВОЗНИК-КОН ЦЕНТАР,41.956314086914,21.533966064453
1992,1008,ДОЛНО ЛИСИЧЕ НАДВОЗНИК-КОН Т,41.956161499023,21.533798217773
1993,1009,ДОЛНО ЛИСИЧЕ Т,41.958679199219,21.538656234741
1996,1012,ДРАЧЕВО БЕНЗИНСКА-КОН ЦЕНТАР,41.93603515625,21.513305664062
1997,1013,ДРАЧЕВО БЕНЗИНСКА-КОН ЗЕЛЕНИКОВО,41.935722351074,21.513944625854
1998,1014,С.ДРАЧЕВО ЦРКВА-КОН ЦЕНТАР,41.935035705566,21.51736831665
1999,1015,С.ДРАЧЕВО ЦРКВА-КОН ЗЕЛЕНИКОВО,41.934837341309,21.517507553101
2000,1016,ПАТ ЗА ЦИГЛАНА-КОН ЦЕНТАР,41.93102645874,21.530267715454
2001,1017,ПАТ ЗА ЦИГЛАНА-КОН ЗЕЛЕНИКОВО,41.930950164795,21.53048324585
2002,1018,ПАТ ПРЕД СТУДЕНИЧАНИ-КОН ЦЕНТАР,41.927013397217,21.540742874146
2003,1019,ПАТ ПРЕД СТУДЕНИЧАНИ-КОН ЗЕЛЕНИКОВО,41.92700958252,21.540752410889
2004,1020,КРСТОСНИЦА ЗА СТУДЕНИЧАНИ-КОН ЦЕНТАР,41.92497253418,21.54305267334
2005,1021,КРСТОСНИЦА ЗА СТУДЕНИЧАНИ-КОН ЗЕЛЕНИКОВО,41.924781799316,21.543190002441
2006,1022,ЗИНЕС-КОН ЦЕНТАР,41.919525146484,21.549346923828
2007,1023,ЗИНЕС-КОН ЗЕЛЕНИКОВО,41.919273376465,21.549354553223
2008,1024,ПАТ ЗА МОРАНЕ-КОН ЦЕНТАР,41.91637802124,21.553884506226
2009,1025,ПАТ ЗА МОРАНЕ-КОН ЗЕЛЕНИКОВО,41.916091918945,21.553833007812
2010,1026,ФРУКТАЛ-КОН ЦЕНТАР,41.918537139893,21.559299468994
2011,1027,ФРУКТАЛ-КОН ЗЕЛЕНИКОВО,41.918567657471,21.559545516968
2012,1028,СЕРВИС БАЖЕ-КОН ЦЕНТАР,41.918930053711,21.563629150391
2013,1029,СЕРВИС БАЖЕ-КОН ЗЕЛЕНИКОВО,41.918762207031,21.563751220703
2014,1030,ЦРКВА БОГОРОДИЦА 1-КОН ЦЕНТАР,41.916515350342,21.57452583313
2015,1031,ЦРКВА БОГОРОДИЦА 1-ЗЕЛЕНИКОВО,41.916439056396,21.574447631836
2016,1032,ЦРКВА БОГОРОДИЦА 2-КОН ЦЕНТАР,41.914863586426,21.578050613403
2017,1033,ЦРКВА БОГОРОДИЦА 2-ЗЕЛЕНИКОВО,41.914813995361,21.57818031311
2018,1034,МЛЕКАРА МАСКО-КОН ЦЕНТАР,41.912593841553,21.584276199341
2019,1035,МЛЕКАРА МАСКО-КОН ЗЕЛЕНИКОВО,41.91268157959,21.583566665649
2020,1036,ЖЕЛ.СТАНИЦА ЈАНЕ САНДАНСКИ-КОН ЦЕНТАР,41.90735244751,21.593013763428
2021,1037,ЖЕЛ.СТАНИЦА ЈАНЕ САНДАНСКИ-КОН ЗЕЛЕНИКОВО,41.907279968262,21.593204498291
2022,1038,ОРЕШАНИ 1-КОН ЦЕНТАР,41.903423309326,21.599603652954
2023,1039,ОРЕШАНИ 1-КОН ЗЕЛЕНИКОВО,41.903205871582,21.599700927734
2024,1040,ОРЕШАНИ 2-КОН ЦЕНТАР,41.898128509521,21.602180480957
2025,1041,ОРЕШАНИ 2-КОН ЗЕЛЕНИКОВО,41.898357391357,21.60203742981
2026,1042,ЏАМБОВИЦА-КОН ЦЕНТАР,41.8913230896,21.588895797729
2027,1043,ЏАМБОВИЦА-КОН ЗЕЛЕНИКОВО,41.891448974609,21.58869934082
2028,1044,ПАНАДА-КОН ЦЕНТАР,41.893753051758,21.597793579102
2029,1045,ПАНАДА-КОН ЗЕЛЕНИКОВО,41.89387512207,21.597854614258
2030,1046,ПАТ ЗА ВРАЖАЛЕ-КОН ЦЕНТАР,41.889225006104,21.587827682495
2031,1047,ПАТ ЗА ВРАЖАЛЕ-КОН ЗЕЛЕНИКОВО,41.889430999756,21.587581634521
2032,1048,ПАТ ЗА МАНАСТИР-КОН ЦЕНТАР,41.886070251465,21.587696075439
2033,1049,ПАТ ЗА МАНАСТИР-КОН ЗЕЛЕНИКОВО,41.885913848877,21.587711334229
2034,1050,ЗЕЛЕНИКОВО-КОН ЦЕНТАР,41.883724212646,21.590213775635
2035,1051,ЗЕЛЕНИКОВО-КОН Т,41.883655548096,21.590120315552
2036,1052,ЗЕЛЕНИКОВО ПЛОЧА-КОН ЦЕНТАР,41.880290985107,21.596975326538
2037,1053,ЗЕЛЕНИКОВО ПЛОЧА-КОН Т,41.880184173584,21.596925735474
2038,1054,ЗЕЛЕНИКОВО МЛЕКАРА-КОН ЦЕНТАР,41.876064300537,21.597434997559
2039,1055,ЗЕЛЕНИКОВО МЛЕКАРА-КОН Т,41.876239776611,21.59725189209
2040,1056,ОПШТИНА ЗЕЛЕНИКОВО-КОН ЦЕНТАР,41.873157501221,21.602899551392
2041,1057,ОПШТИНА ЗЕЛЕНИКОВО-КОН Т,41.873027801514,21.602712631226
2042,1058,ЗЕЛЕНИКОВО Т,41.870544433594,21.607128143311
2044,1061,ПАТ ЗА НОВО СЕЛО-КОН Т,41.873332977295,21.602970123291
2045,1063,ПАКОШЕВО ВИКЕНДИЦИ-КОН НОВО СЕЛО,41.874485015869,21.613956451416
2046,1065,ПАКОШЕВО-КОН НОВО СЕЛО,41.873481750488,21.617305755615
2047,1067,НОВО СЕЛО 1-КОН Т,41.867824554443,21.618061065674
2048,1069,НОВО СЕЛО 2-КОН Т,41.864994049072,21.616912841797
2049,1071,НОВО СЕЛО 3-КОН Т,41.860473632812,21.620666503906
2050,1072,НОВО СЕЛО Т,41.853801727295,21.621881484985
2054,1076,СТУДЕНИЧАНИ-КОН ЦЕНТАР,41.922466278076,21.539295196533
2055,1077,СТУДЕНИЧАНИ-КОН Т,41.922470092773,21.539262771606
2056,1078,СТУДЕНИЧАНИ Т,41.919952392578,21.534057617188
2057,1079,ДРАЧЕВО ДРВАРА-КОН ЦЕНТАР,41.935974121094,21.513090133667
2058,1080,ДРАЧЕВО ДРВАРА-КОН КОЛИЧАНИ,41.935947418213,21.513175964355
2059,1081,ПАТ ЗА ЉУБОШ-КОН ЦЕНТАР,41.923686981201,21.501033782959
2060,1082,ПАТ ЗА ЉУБОШ-КОН КОЛИЧАНИ,41.923641204834,21.500741958618
2061,1083,ПЕЛЕНИЦА-КОН ЦЕНТАР,41.917152404785,21.495840072632
2062,1084,ПЕЛЕНИЦА-КОН КОЛИЧАНИ,41.917293548584,21.496061325073
2063,1085,ДОЛНО КОЛИЧАНИ-КОН ЦЕНТАР,41.88761138916,21.484981536865
2064,1086,ДОЛНО КОЛИЧАНИ-КОН Т,41.887508392334,21.485055923462
2065,1087,ДОЛНО КОЛИЧАНИ Т,41.885887145996,21.482624053955
2067,1091,ПАТ ЗА БАТИНЦИ-КОН ЦЕНТАР,41.937255859375,21.500366210938
2068,1092,ПАТ ЗА БАТИНЦИ-КОН БАТИНЦИ,41.937236785889,21.499956130981
2069,1093,СЕПАРАЦИЈА БЕРОВИЌ-КОН БАТИНЦИ,41.930648803711,21.492813110352
2070,1094,СЕПАРАЦИЈА БЕРОВИЌ-КОН ЦЕНТАР,41.931304931641,21.494873046875
2071,1095,МОСТ ЗА БАТИНЦИ-КОН ЦЕНТАР,41.926040649414,21.488540649414
2072,1096,МОСТ ЗА БАТИНЦИ-КОН БАТИНЦИ,41.925521850586,21.487487792969
2073,1097,ЉУБОШ 1-КОН ЦЕНТАР,41.922729492188,21.48974609375
2074,1098,ЉУБОШ 1-КОН БАТИНЦИ,41.922752380371,21.489530563354
2075,1099,ЉУБОШ 2-КОН ЦЕНТАР,41.921371459961,21.487335205078
2076,1100,ЉУБОШ 2-КОН БАТИНЦИ,41.921463012695,21.486999511719
2077,1101,БАТИНЦИ ГРОБИШТА-КОН ЦЕНТАР,41.920818328857,21.484081268311
2078,1102,БАТИНЦИ ГРОБИШТА-КОН Т,41.920944213867,21.484008789062
2079,1103,БАТИНЦИ ЏАМИЈА-КОН ЦЕНТАР,41.919033050537,21.479721069336
2080,1104,БАТИНЦИ ЏАМИЈА-КОН Т,41.919242858887,21.479818344116
2081,1105,БАТИНЦИ 1-КОН ЦЕНТАР,41.918243408203,21.475723266602
2082,1106,БАТИНЦИ 1-КОН Т,41.918411254883,21.475631713867
2083,1107,БАТИНЦИ 2-КОН ЦЕНТАР,41.917419433594,21.472274780273
2084,1108,БАТИНЦИ 2-КОН Т,41.917465209961,21.471771240234
2085,1109,БАТИНЦИ Т,41.916015625,21.468994140625
2086,1111,ПАТ ЗА ДРИСЛА-КОН ЦВЕТОВО,41.920467376709,21.46849822998
2087,1113,РЕСТОРАН БЕЛА-КОН ЦВЕТОВО,41.919044494629,21.459156036377
2088,1115,ВИКЕНДИЦИ 1-КОН ЦВЕТОВО,41.918380737305,21.455413818359
2089,1117,ВИКЕНДИЦИ 2-КОН ЦВЕТОВО,41.916328430176,21.447689056396
2090,1119,ВАРВАРА-КОН ЦВЕТОВО,41.912757873535,21.434846878052
2091,1121,ВИКЕНДИЦИ 3-КОН ЦВЕТОВО,41.908218383789,21.415721893311
2092,1123,МАРКОВА СУШИЦА КРСТОСНИЦА-КОН ЦВЕТОВО,41.907890319824,21.412189483643
2093,1125,МАРКОВА СУШИЦА ВИКЕНДИЦИ-КОН ЦВЕТОВО,41.904788970947,21.415821075439
2094,1127,РАМПА ЗА МАРКОВА РЕКА-КОН ЦВЕТОВО,41.901966094971,21.412923812866
2095,1129,ПАТ ЗА МАРКОВА РЕКА-КОН ЦВЕТОВО,41.899200439453,21.408432006836
2097,1131,ОПШТИНА СОПИШТЕ-КОН ЦЕНТАР,41.949432373047,21.418004989624
2098,1132,ОПШТИНА СОПИШТЕ-КОН Т,41.949550628662,21.417877197266
2099,1133,ОУ ДРАГА СТОЈАНОВСКА-КОН ЦЕНТАР,41.943023681641,21.414428710938
2100,1134,ОУ ДРАГА СТОЈАНОВСКА-КОН ДОБРИ ДОЛ,41.943099975586,21.414306640625
2101,1135,РАКОТИНЦИ-КОН ЦЕНТАР,41.940185546875,21.413854598999
2102,1136,РАКОТИНЦИ-КОН ДОБРИ ДОЛ,41.94034576416,21.413621902466
2103,1137,РАКОТИНЦИ ИЗЛЕЗ-КОН ЦЕНТАР,41.938014984131,21.41400718689
2104,1138,РАКОТИНЦИ ИЗЛЕЗ-КОН ДОБРИ ДОЛ,41.937992095947,21.413999557495
2105,1139,ДОБРИ ДОЛ ВЛЕЗ-КОН ЦЕНТАР,41.932918548584,21.412353515625
2106,1140,ДОБРИ ДОЛ ВЛЕЗ-КОН Т,41.932674407959,21.412076950073
2107,1141,ДОБРИ ДОЛ 1-КОН ЦЕНТАР,41.930404663086,21.409927368164
2108,1142,ДОБРИ ДОЛ 1-КОН Т,41.930374145508,21.409744262695
2109,1143,ДОБРИ ДОЛ 2-КОН ЦЕНТАР,41.929061889648,21.408981323242
2110,1144,ДОБРИ ДОЛ 2-КОН Т,41.928985595703,21.408752441406
2111,1145,ДОБРИ ДОЛ Т,41.927349090576,21.406053543091
2112,1146,ГОРНО СОЊЕ 1-КОН ЦЕНТАР,41.948787689209,21.406871795654
2113,1147,ГОРНО СОЊЕ 1-КОН ДОЛНО СОЊЕ,41.948921203613,21.407009124756
2114,1148,ГОРНО СОЊЕ 2-КОН ЦЕНТАР,41.946670532227,21.401838302612
2115,1149,ГОРНО СОЊЕ 2-КОН ДОЛНО СОЊЕ,41.946617126465,21.401561737061
2116,1150,ГОРНО СОЊЕ 3-КОН ЦЕНТАР,41.944686889648,21.39892578125
2117,1151,ГОРНО СОЊЕ 3-КОН ДОЛНО СОЊЕ,41.944793701172,21.398818969727
2118,1152,ГОРНО СОЊЕ СЕРВИС МЛАКИ-КОН ЦЕНТАР,41.944507598877,21.395610809326
2119,1153,ГОРНО СОЊЕ СЕРВИС МЛАКИ-КОН ДОЛНО СОЊЕ,41.94454574585,21.395578384399
2120,1154,ПАТ ЗА ДОЛНО СОЊЕ-КОН ЦЕНТАР,41.942310333252,21.391025543213
2121,1155,ПАТ ЗА ДОЛНО СОЊЕ-КОН Т,41.942489624023,21.390975952148
2122,1156,ДОЛНО СОЊЕ ГРОБИШТА-КОН ЦЕНТАР,41.939788818359,21.383407592773
2123,1157,ДОЛНО СОЊЕ ГРОБИШТА-КОН Т,41.939910888672,21.383209228516
2124,1158,ДОЛНО СОЊЕ МОСТ-КОН ЦЕНТАР,41.939743041992,21.378402709961
2125,1159,ДОЛНО СОЊЕ МОСТ-КОН Т,41.939880371094,21.378494262695
2126,1160,ДОЛНО СОЊЕ ПОЛЕ-КОН ЦЕНТАР,41.934505462646,21.374725341797
2127,1161,ДОЛНО СОЊЕ ПОЛЕ-КОН БРЗОВЕЦ,41.934707641602,21.374710083008
2128,1162,ДОЛНО СОЊЕ ВИКЕНДИЦИ-КОН ЦЕНТАР,41.930736541748,21.373016357422
2129,1163,ДОЛНО СОЊЕ ВИКЕНДИЦИ-КОН БРЗОВЕЦ,41.930698394775,21.372930526733
2130,1164,БРЗОВЕЦ Т-КОН ЦЕНТАР,41.927032470703,21.367956161499
2131,1165,БРЗОВЕЦ Т-КОН ЈАБОЛЦЕ И БРЕЗНИЦА,41.926933288574,21.367820739746
2138,1172,ДОЛНО СОЊЕ ЛОЗЈА-КОН ЦЕНТАР,41.940567016602,21.372756958008
2139,1173,ДОЛНО СОЊЕ ЛОЗЈА-КОН Т,41.94059753418,21.372634887695
2140,1174,ЧИФЛИК ВЛЕЗ-КОН ЦЕНТАР,41.941696166992,21.36604309082
2141,1175,ЧИФЛИК ВЛЕЗ-КОН Т,41.94176864624,21.365995407104
2142,1176,ЧИФЛИК ЦРЕШИ-КОН ЦЕНТАР,41.944110870361,21.362245559692
2143,1177,ЧИФЛИК ЦРЕШИ-КОН Т,41.944030761719,21.362426757812
2144,1178,ЧИФЛИК-КОН ЦЕНТАР,41.947681427002,21.354177474976
2145,1179,ЧИФЛИК-КОН Т,41.94775390625,21.354015350342
2146,1180,ЧИФЛИК ЏАМИЈА-КОН ЦЕНТАР,41.946521759033,21.352535247803
2147,1181,ЧИФЛИК ЏАМИЈА-КОН Т,41.946563720703,21.352569580078
2148,1182,ПОДРАЧНО ОУ ДРАГА СТОЈАНОВСКА-КОН ЦЕНТАР,41.946220397949,21.349815368652
2149,1183,ПОДРАЧНО ОУ ДРАГА СТОЈАНОВСКА-КОН Т,41.946281433105,21.349750518799
2150,1184,СВЕТА ПЕТКА Т,41.941646575928,21.337322235107
2151,1192,ГЛУМОВО ЏАМИЈА-КОН ЦЕНТАР,41.978538513184,21.303455352783
2152,1193,ГЛУМОВО ЏАМИЈА -КОН МАТКА,41.978427886963,21.303527832031
2153,1194,МАТКА КАСАРНА-КОН ЦЕНТАР,41.97533416748,21.302852630615
2154,1195,МАТКА КАСАРНА-КОН Т,41.975364685059,21.302755355835
2155,1196,МАТКА ВИКЕНДИЦИ 1-КОН ЦЕНТАР,41.965576171875,21.303634643555
2156,1197,МАТКА ВИКЕНДИЦИ 1-КОН Т,41.965549468994,21.303195953369
2157,1198,МАТКА ВИКЕНДИЦИ 2-КОН ЦЕНТАР,41.968734741211,21.305528640747
2158,1199,МАТКА ВИКЕНДИЦИ 2-КОН Т,41.968925476074,21.305458068848
2159,1200,МАТКА МАНАСТИР-КОН ЦЕНТАР,41.961036682129,21.296314239502
2160,1201,МАТКА МАНАСТИР-КОН Т,41.960838317871,21.296060562134
2161,1202,МАТКА Т,41.958820343018,21.295551300049
2162,1208,САРАЈ КРИВИНА-КОН ЦЕНТАР,41.99267578125,21.317495346069
2163,1209,САРАЈ КРИВИНА-КОН БОЈАНЕ,41.992786407471,21.317316055298
2164,1210,КРСТОСНИЦА ЗА АВТОПАТ-КОН ЦЕНТАР,41.990436553955,21.313425064087
2165,1211,КРСТОСНИЦА ЗА АВТОПАТ-КОН БОЈАНЕ,41.990497589111,21.313280105591
2166,1212,АРНАКИЈА ВИКЕНДИЦИ-КОН ЦЕНТАР,41.986850738525,21.299137115479
2167,1213,АРНАКИЈА ВИКЕНДИЦИ-КОН БОЈАНЕ,41.987045288086,21.299215316772
2168,1214,ПАТ ЗА АРНАКИЈА-КОН ЦЕНТАР,41.988498687744,21.287906646729
2169,1215,ПАТ ЗА АРНАКИЈА-КОН БОЈАНЕ,41.988567352295,21.287914276123
2170,1216,АРНАКИЈА БЕНЗИНСКА-КОН ЦЕНТАР,41.987480163574,21.28197479248
2171,1217,АРНАКИЈА БЕНЗИНСКА-КОН БОЈАНЕ,41.987754821777,21.281946182251
2172,1218,АРНАКИЈА-КОН ЦЕНТАР,41.984035491943,21.270057678223
2173,1219,АРНАКИЈА-КОН БОЈАНЕ,41.984130859375,21.270021438599
2174,1220,ПАТ ЗА СЕМЕНИШТЕ-КОН ЦЕНТАР,41.979152679443,21.257257461548
2175,1221,ПАТ ЗА СЕМЕНИШТЕ-КОН БОЈАНЕ,41.979175567627,21.256923675537
2176,1222,ПАТ ЗА ЧАЈЛАНЕ-КОН ЦЕНТАР,41.97847366333,21.251523971558
2177,1223,ПАТ ЗА ЧАЈЛАНЕ-КОН БОЈАНЕ,41.978481292725,21.251447677612
2178,1224,БУКОВИЧ-КОН ЦЕНТАР,41.978202819824,21.239404678345
2182,1226,ПАТ ЗА КОПАНИЦА-КОН ЦЕНТАР,41.979598999023,21.227462768555
2183,1227,ПАТ ЗА КОПАНИЦА-КОН БОЈАНЕ,41.979736328125,21.227676391602
2184,1228,ЛАСКАРЦИ 1-КОН ЦЕНТАР,41.978233337402,21.215589523315
2185,1229,ЛАСКАРЦИ 1-КОН БОЈАНЕ,41.978359222412,21.21549987793
2186,1230,ЛАСКАРЦИ 2-КОН ЦЕНТАР,41.978370666504,21.210203170776
2187,1231,ЛАСКАРЦИ 2-КОН БОЈАНЕ,41.978523254395,21.210132598877
2188,1232,ПАТ ЗА БОЈАНЕ-КОН ЦЕНТАР,41.982227325439,21.192293167114
2189,1233,ПАТ ЗА БОЈАНЕ-КОН Т,41.982227325439,21.192520141602
2190,1234,БОЈАНЕ ПОШТА-КОН ЦЕНТАР,41.997371673584,21.192602157593
2191,1235,БОЈАНЕ ПОШТА-КОН Т,41.997024536133,21.192733764648
2192,1236,БОЈАНЕ Т,42.000213623047,21.192602157593
2193,1237,КОПАНИЦА ГРОБИШТА-КОН ЦЕНТАР,42.002666473389,21.229141235352
2194,1238,КОПАНИЦА ГРОБИШТА-КОН Т,42.002799987793,21.229295730591
2195,1239,КОПАНИЦА АМБУЛАНТА-КОН ЦЕНТАР,42.008605957031,21.229663848877
2196,1240,КОПАНИЦА АМБУЛАНТА-КОН Т,42.008445739746,21.229898452759
2197,1241,КОПАНИЦА Т,42.014122009277,21.234077453613
2198,1242,"ДЕКСИОН РАМПА-КОН ЦЕНТАР",42.00993347168,21.332946777344
2199,1243,"ДЕКСИОН РАМПА-КОН РАШЧЕ",42.009979248047,21.332931518555
2200,1244,"КОНДОВО-КОН ЦЕНТАР",42.00993347168,21.322113037109
2201,1245,"КОНДОВО-КОН РАШЧЕ",42.01008605957,21.322128295898
2202,1246,"КОНДОВО ГРОБИШТА-КОН ЦЕНТАР",42.010955810547,21.312866210938
2203,1247,"КОНДОВО ГРОБИШТА-КОН РАШЧЕ",42.011123657227,21.312591552734
2204,1248,"КОНДОВО МЕДРЕСА-КОН ЦЕНТАР",42.01150894165,21.307445526123
2205,1249,"КОНДОВО МЕДРЕСА-КОН РАШЧЕ",42.011764526367,21.307220458984
2206,1250,"КОНДОВО МЕДРЕСА ФАКУЛТЕТ-КОН ЦЕНТАР",42.012882232666,21.301132202148
2207,1251,"КОНДОВО МЕДРЕСА ФАКУЛТЕТ-КОН РАШЧЕ",42.012996673584,21.301277160645
2208,1252,"СВИЛАРЕ ХЛОРНА СТАНИЦА-КОН ЦЕНТАР",42.015411376953,21.295333862305
2209,1253,"СВИЛАРЕ ХЛОРНА СТАНИЦА-КОН Т",42.015705108643,21.2952003479
2210,1254,"СВИЛАРЕ ПРЕД МОСТ-КОН ЦЕНТАР",42.019569396973,21.288856506348
2211,1255,"СВИЛАРЕ ПРЕД МОСТ-КОН Т",42.019607543945,21.289136886597
2212,1256,"ДОЛНО СВИЛАРЕ АМБУЛАНТА-КОН ЦЕНТАР",42.02165222168,21.287734985352
2213,1257,"ДОЛНО СВИЛАРЕ АМБУЛАНТА-КОН Т",42.021911621094,21.287704467773
2214,1258,"РАШЧЕ МОСТ ВОДОВОД-КОН ЦЕНТАР",42.016799926758,21.270881652832
2215,1259,"РАШЧЕ МОСТ ВОДОВОД-КОН Т",42.016891479492,21.270858764648
2216,1260,"РАШЧЕ Т",42.022888183594,21.256561279297
2217,1261,"РАШЧЕ ИЗВОР",42.033985137939,21.24920463562
2221,1265,ВОЛКОВО Т,42.045837402344,21.345993041992
2222,1266,ВОЛКОВО КРИВА БАРА-КОН ЦЕНТАР,42.050956726074,21.347019195557
2223,1267,ВОЛКОВО КРИВА БАРА-КОН НИКИШТАНИ,42.051006317139,21.347187042236
2224,1268,ОУ ЈОАКИМ КРЧОСКИ-КОН ЦЕНТАР,42.053791046143,21.348844528198
2225,1269,ОУ ЈОАКИМ КРЧОСКИ-КОН НИКИШТАНИ,42.053985595703,21.349075317383
2226,1270,ВОЛКОВО ОРМАНСКИ БРЕСТ-КОН ЦЕНТАР,42.059497833252,21.350811004639
2227,1271,ВОЛКОВО ОРМАНСКИ БРЕСТ-КОН НИКИШТАНИ,42.058689117432,21.349962234497
2228,1272,ОРМАН-КОН ЦЕНТАР,42.066696166992,21.35466003418
2229,1273,ОРМАН-КОН НИКИШТАНИ,42.066879272461,21.354629516602
2230,1274,НИКИШТАНИ ВЛЕЗ-КОН ЦЕНТАР,42.069023132324,21.344390869141
2231,1275,НИКИШТАНИ ВЛЕЗ-КОН Т,42.06912612915,21.34478187561
2232,1276,НИКИШТАНИ Т,42.066997528076,21.338417053223
2233,1277,КУЧКОВО ОБИКОЛНИЦА-КОН ЦЕНТАР,42.049175262451,21.337661743164
2234,1278,КУЧКОВО ОБИКОЛНИЦА-КОН Т,42.049446105957,21.337200164795
2235,1279,ГАБЕРЧЕ-КОН ЦЕНТАР,42.051208496094,21.330947875977
2236,1280,ГАБЕРЧЕ-КОН КУЧКОВО,42.051372528076,21.331024169922
2237,1281,КРИВА БАБА-КОН ЦЕНТАР,42.052558898926,21.32633972168
2238,1282,КРИВА БАБА-КОН КУЧКОВО,42.052429199219,21.328033447266
2239,1283,ЈАСИКИ-КОН ЦЕНТАР,42.053905487061,21.323434829712
2240,1284,ЈАСИКИ-КОН КУЧКОВО,42.054004669189,21.323661804199
2241,1285,ЛОЗЈА-КОН ЦЕНТАР,42.056667327881,21.319795608521
2242,1286,ЛОЗЈА-КОН КУЧКОВО,42.056739807129,21.319602966309
2243,1287,ПЕРЕТСКИ ДОЛ-КОН ЦЕНТАР,42.059650421143,21.315473556519
2244,1288,ПЕРЕТСКИ ДОЛ-КОН КУЧКОВО,42.0598487854,21.315250396729
2245,1289,ДУБИЧЕ-КОН ЦЕНТАР,42.055957794189,21.311008453369
2246,1290,ДУБИЧЕ-КОН КУЧКОВО,42.05606842041,21.310869216919
2247,1291,КУЧКОВО Т,42.058715820312,21.306884765625
2248,1292,МОМИН ПОТОК-КОН ЦЕНТАР,42.015537261963,21.409383773804
2249,1293,"МОМИН ПОТОК-КОН ВИЗБЕГОВО",42.015739440918,21.409406661987
2250,1294,"ОТПАДИ-КОН ЦЕНТАР",42.020263671875,21.407470703125
2251,1295,"ОТПАДИ-КОН ВИЗБЕГОВО",42.020263671875,21.407730102539
2252,1296,"КРСТОСНИЦА СО БУЛ СЛОВЕНИЈА-КОН ЦЕНТАР",42.025024414062,21.40867805481
2253,1297,"КРСТОСНИЦА СО БУЛ СЛОВЕНИЈА-КОН ВИЗБЕГОВО",42.024971008301,21.4088306427
2254,1298,"ВИЗБЕГОВО НАДВОЗНИК-КОН ЦЕНТАР",42.029411315918,21.4065284729
2255,1299,"ВИЗБЕГОВО НАДВОЗНИК-КОН ВИЗБЕГОВО",42.029346466064,21.40655708313
2256,1300,"ВИЗБЕГОВО-КОН ЦЕНТАР",42.034034729004,21.408222198486
2257,1301,"ВИЗБЕГОВО-КОН ВИЗБЕГОВО",42.033897399902,21.408405303955
2258,1302,"ВИЗБЕГОВО Т",42.03600692749,21.41011428833
2278,1328,ГОРНО ОРИЗАРИ ВЛЕЗ-КОН ЦЕНТАР,42.058898925781,21.412109375
2279,1329,ГОРНО ОРИЗАРИ ВЛЕЗ-КОН БЛАЦЕ,42.059085845947,21.41192817688
2280,1330,ГОРНО ОРИЗАРИ ЦРКВА-КОН ЦЕНТАР,42.061012268066,21.409250259399
2281,1331,ГОРНО ОРИЗАРИ ЦРКВА-КОН БЛАЦЕ,42.061027526855,21.40926361084
2282,1332,ГОРНО ОРИЗАРИ ВИКЕНДИЦИ-КОН ЦЕНТАР,42.073104858398,21.40592956543
2283,1333,ГОРНО ОРИЗАРИ ВИКЕНДИЦИ-КОН БЛАЦЕ,42.073020935059,21.406080245972
2284,1334,БРАЗДА-КОН ЦЕНТАР,42.082035064697,21.403728485107
2285,1335,БРАЗДА-КОН БЛАЦЕ,42.082092285156,21.403953552246
2286,1336,ГЛУВО 1-КОН ЦЕНТАР,42.087085723877,21.401319503784
2287,1337,ГЛУВО 1-КОН БЛАЦЕ,42.087284088135,21.401327133179
2288,1338,ГЛУВО 2-КОН ЦЕНТАР,42.089797973633,21.398330688477
2289,1339,ГЛУВО 2-КОН БЛАЦЕ,42.089920043945,21.398635864258
2290,1340,САНДЕВО СПОМЕНИК-КОН ЦЕНТАР,42.094730377197,21.393459320068
2291,1341,САНДЕВО СПОМЕНИК-КОН БЛАЦЕ,42.094829559326,21.393520355225
2292,1342,ЧУЧЕР-КОН ЦЕНТАР,42.096969604492,21.388458251953
2293,1343,ЧУЧЕР-КОН БЛАЦЕ,42.097076416016,21.388528823853
2294,1344,ЧУЧЕР ИГРАЛИШТЕ-КОН ЦЕНТАР,42.099052429199,21.386804580688
2295,1345,ЧУЧЕР ИГРАЛИШТЕ-КОН БЛАЦЕ,42.09912109375,21.386804580688
2296,1346,ЧУЧЕР Т,42.102558135986,21.384824752808
2297,1347,ПАТ ЗА БАЊАНИ-КОН ЦЕНТАР,42.10457611084,21.384094238281
2298,1348,ПАТ ЗА БАЊАНИ-КОН БЛАЦЕ,42.104705810547,21.383985519409
2299,1349,ЧУЧЕР МАНАСТИР-КОН ЦЕНТАР,42.108436584473,21.379417419434
2300,1350,ЧУЧЕР МАНАСТИР-КОН БЛАЦЕ,42.108558654785,21.3792552948
2301,1351,ЧУЧЕР ВИКЕНДИЦИ 1-КОН ЦЕНТАР,42.109771728516,21.375507354736
2302,1352,ЧУЧЕР ВИКЕНДИЦИ 1-КОН БЛАЦЕ,42.109931945801,21.37548828125
2303,1353,ЧУЧЕР ВИКЕНДИЦИ 2-КОН ЦЕНТАР,42.11083984375,21.371932983398
2304,1354,ЧУЧЕР ВИКЕНДИЦИ 2-КОН БЛАЦЕ,42.111038208008,21.371887207031
2305,1355,БЛАЦЕ ВЛЕЗ-КОН ЦЕНТАР,42.142154693604,21.339639663696
2306,1356,БЛАЦЕ ВЛЕЗ-КОН Т,42.142208099365,21.339723587036
2307,1357,БЛАЦЕ ПАТ ЗА ГРАНИЦА-КОН ЦЕНТАР,42.14474105835,21.337482452393
2308,1358,БЛАЦЕ ПАТ ЗА ГРАНИЦА-КОН Т,42.144737243652,21.337545394897
2309,1359,БЛАЦЕ-КОН ЦЕНТАР,42.14644241333,21.336954116821
2310,1360,БЛАЦЕ-КОН Т,42.146461486816,21.336971282959
2311,1361,БЛАЦЕ ЧЕШМА-КОН ЦЕНТАР,42.148010253906,21.335739135742
2312,1362,БЛАЦЕ ЧЕШМА-КОН Т,42.148010253906,21.336044311523
2313,1363,БЛАЦЕ Т,42.15064239502,21.33408164978
2314,1364,САНДЕВО СПОМЕНИК КРСТОСНИЦА-КОН ЦЕНТАР,42.094650268555,21.393709182739
2315,1365,САНДЕВО СПОМЕНИК КРСТОСНИЦА-КОН БАЊАНИ,42.094711303711,21.39402961731
2316,1366,САНДЕВО-КОН ЦЕНТАР,42.097793579102,21.393905639648
2317,1367,САНДЕВО-КОН БАЊАНИ,42.097915649414,21.394119262695
2318,1368,ПАТ ЗА САНДЕВО-КОН ЦЕНТАР,42.102954864502,21.393140792847
2319,1369,ПАТ ЗА САНДЕВО-КОН БАЊАНИ,42.102821350098,21.393199920654
2320,1370,БАЊАНИ-КОН ЦЕНТАР,42.106899261475,21.390628814697
2321,1371,БАЊАНИ-КОН Т,42.106910705566,21.390676498413
2322,1372,БАЊАНИ Т,42.108020782471,21.387731552124
2323,1373,БУТЕЛ ЛОЗЈА-КОН ЦЕНТАР,42.036270141602,21.443969726562
2324,1374,БУТЕЛ ЛОЗЈА-КОН ПОБОЖЈЕ,42.036697387695,21.443603515625
2325,1375,БУТЕЛ ГРОБИШТА-КОН ЦЕНТАР,42.045475006104,21.432573318481
2326,1376,БУТЕЛ ГРОБИШТА-КОН ПОБОЖЈЕ,42.045654296875,21.432800292969
2327,1377,ПАТ ЗА ШУТО ОРИЗАРИ-КОН ЦЕНТАР,42.048347473145,21.428457260132
2328,1378,ПАТ ЗА ШУТО ОРИЗАРИ-КОН ПОБОЖЈЕ,42.048412322998,21.428623199463
2329,1379,ПАТ ЗА ГОРНО ОРИЗАРИ 1-КОН ЦЕНТАР,42.058128356934,21.414476394653
2330,1380,ПАТ ЗА ГОРНО ОРИЗАРИ 1-КОН ПОБОЖЈЕ,42.058311462402,21.414539337158
2331,1381,ПАТ ЗА ГОРНО ОРИЗАРИ 2-КОН ЦЕНТАР,42.065315246582,21.410430908203
2332,1382,ПАТ ЗА ГОРНО ОРИЗАРИ 2-КОН ПОБОЖЈЕ,42.065509796143,21.410615921021
2333,1383,ГРАДИШТЕ ВИКЕНДИЦИ-КОН ЦЕНТАР,42.072277069092,21.410200119019
2334,1384,ГРАДИШТЕ ВИКЕНДИЦИ-КОН ПОБОЖЈЕ,42.072345733643,21.410261154175
2335,1385,ГОЛИЕВО-КОН ЦЕНТАР,42.077281951904,21.4095287323
2336,1386,ГОЛИЕВО-КОН ПОБОЖЈЕ,42.077690124512,21.409189224243
2337,1387,ЧАРДАК-КОН ЦЕНТАР,42.084362030029,21.40746307373
2338,1388,ЧАРДАК-КОН ПОБОЖЈЕ,42.084335327148,21.407495498657
2339,1389,МИРКОВЦИ 1-КОН ЦЕНТАР,42.094757080078,21.403875350952
2340,1390,МИРКОВЦИ 1-КОН ПОБОЖЈЕ,42.094760894775,21.403951644897
2341,1391,МИРКОВЦИ 2-КОН ЦЕНТАР,42.099403381348,21.404443740845
2342,1392,МИРКОВЦИ 2-КОН ПОБОЖЈЕ,42.099548339844,21.404586791992
2343,1393,БАЊАНИ РУДНИК-КОН ЦЕНТАР,42.105129241943,21.407358169556
2344,1394,БАЊАНИ РУДНИК-КОН ПОБОЖЈЕ,42.10498046875,21.407455444336
2345,1395,КУЧЕВИШТЕ ВЛЕЗ-КОН ЦЕНТАР,42.10680770874,21.411338806152
2346,1396,КУЧЕВИШТЕ ВЛЕЗ-КОН ПОБОЖЈЕ,42.106796264648,21.411407470703
2347,1397,КУЧЕВИШТЕ-КОН ЦЕНТАР,42.109664916992,21.41276550293
2348,1398,КУЧЕВИШТЕ-КОН ПОБОЖЈЕ,42.110015869141,21.413242340088
2349,1399,КУЧЕВИШТЕ МОСТ-КОН ЦЕНТАР,42.111511230469,21.414733886719
2350,1400,КУЧЕВИШТЕ МОСТ-КОН ПОБОЖЈЕ,42.111560821533,21.41481590271
2351,1401,КУЧЕВИШТЕ АМБУЛАНТА-КОН ЦЕНТАР,42.109100341797,21.418090820312
2352,1402,КУЧЕВИШТЕ АМБУЛАНТА-КОН ПОБОЖЈЕ,42.108783721924,21.41708946228
2353,1403,КУЧЕВИШТЕ ИЗЛЕЗ-КОН ЦЕНТАР,42.109851837158,21.420997619629
2354,1404,КУЧЕВИШТЕ ИЗЛЕЗ-КОН ПОБОЖЈЕ,42.109855651855,21.421249389648
2355,1405,ПОБОЖЈЕ-КОН ЦЕНТАР,42.109775543213,21.42628288269
2356,1406,ПОБОЖЈЕ-КОН Т,42.109733581543,21.426347732544
2357,1407,ПОБОЖЈЕ Т,42.113403320312,21.426086425781
2358,1409,ПАТ ЗА ЉУБАНЦИ 1-КОН ЦЕНТАР,42.077121734619,21.449382781982
2359,1410,ПАТ ЗА ЉУБАНЦИ 1-КОН Т,42.077224731445,21.449708938599
2360,1411,ПАТ ЗА ЉУБАНЦИ 2-КОН ЦЕНТАР,42.079971313477,21.449575424194
2361,1412,ПАТ ЗА ЉУБАНЦИ 2-КОН Т,42.080127716064,21.44958114624
2362,1413,ПАТ ЗА ЉУБАНЦИ 3-КОН ЦЕНТАР,42.0813331604,21.449113845825
2363,1414,ПАТ ЗА ЉУБАНЦИ 3-КОН Т,42.081504821777,21.449140548706
2364,1415,ПАТ ЗА ЉУБАНЦИ 4-КОН ЦЕНТАР,42.083385467529,21.447765350342
2365,1416,ПАТ ЗА ЉУБАНЦИ 4-КОН Т,42.083507537842,21.447919845581
2366,1417,ПАТ ЗА ЉУБАНЦИ 5-КОН ЦЕНТАР,42.087280273438,21.448196411133
2367,1418,ПАТ ЗА ЉУБАНЦИ 5-КОН Т,42.087036132812,21.448486328125
2368,1419,ЉУБАНЦИ ВЛЕЗ-КОН ЦЕНТАР,42.099411010742,21.449584960938
2369,1420,ЉУБАНЦИ ВЛЕЗ-КОН Т,42.0993309021,21.449869155884
2370,1421,ЉУБАНЦИ 1-КОН ЦЕНТАР,42.102722167969,21.452529907227
2371,1422,ЉУБАНЦИ 1-КОН Т,42.102634429932,21.452703475952
2372,1423,ЉУБАНЦИ 2-КОН ЦЕНТАР,42.104263305664,21.454452514648
2373,1424,ЉУБАНЦИ 2-КОН Т,42.104187011719,21.454629898071
2374,1425,ЉУБАНЦИ 3-КОН ЦЕНТАР,42.103546142578,21.456741333008
2375,1426,ЉУБАНЦИ 3-КОН Т,42.103542327881,21.456970214844
2376,1427,ЉУБАНЦИ 4-КОН ЦЕНТАР,42.104629516602,21.458770751953
2377,1428,ЉУБАНЦИ 4-КОН Т,42.104568481445,21.458923339844
2378,1429,ЉУБАНЦИ Т,42.10306930542,21.463771820068
2379,1430,ПАТ ЗА ЉУБОТЕН 1-КОН ЦЕНТАР,42.044357299805,21.455337524414
2380,1431,ПАТ ЗА ЉУБОТЕН 1-КОН Т,42.044219970703,21.455612182617
2381,1432,ПАТ ЗА ЉУБОТЕН 2-КОН ЦЕНТАР,42.049606323242,21.455673217773
2382,1433,ПАТ ЗА ЉУБОТЕН 2-КОН Т,42.04963684082,21.455825805664
2383,1434,ПАТ ЗА ЉУБОТЕН 3-КОН ЦЕНТАР,42.052017211914,21.45783996582
2384,1435,ПАТ ЗА ЉУБОТЕН 3-КОН Т,42.051952362061,21.458028793335
2385,1436,ПАТ ЗА ЉУБОТЕН 4-КОН ЦЕНТАР,42.064392089844,21.46142578125
2386,1437,ПАТ ЗА ЉУБОТЕН 4-КОН Т,42.064407348633,21.461700439453
2387,1438,ПАТ ЗА ЉУБОТЕН 5-КОН ЦЕНТАР,42.082763671875,21.467163085938
2388,1439,ПАТ ЗА ЉУБОТЕН 5-КОН Т,42.082763671875,21.467346191406
2389,1440,ЉУБОТЕН ВЛЕЗ-КОН ЦЕНТАР,42.087799072266,21.469299316406
2390,1441,ЉУБОТЕН ВЛЕЗ-КОН Т,42.087799072266,21.469467163086
2391,1442,ЉУБОТЕН 1-КОН ЦЕНТАР,42.090682983398,21.472320556641
2392,1443,ЉУБОТЕН 1-КОН Т,42.090637207031,21.472372055054
2393,1444,ЉУБОТЕН 2-КОН ЦЕНТАР,42.093490600586,21.47346496582
2394,1445,ЉУБОТЕН 2-КОН Т,42.093536376953,21.4736328125
2395,1446,ЉУБОТЕН Т,42.09521484375,21.471862792969
2397,1447,ЦРЕШЕВО ИЗЛЕЗ-КОН ЦЕНТАР,42.052795410156,21.508392333984
2398,1448,ЦРЕШЕВО ИЗЛЕЗ-КОН РАШТАК,42.053035736084,21.508142471313
2399,1449,БУЛАЧАНИ 1-КОН ЦЕНТАР,42.06018447876,21.504522323608
2400,1450,БУЛАЧАНИ 1-КОН РАШТАК,42.060333251953,21.50457572937
2401,1451,БУЛАЧАНИ 2-КОН ЦЕНТАР,42.063129425049,21.504529953003
2402,1452,БУЛАЧАНИ 2-КОН РАШТАК,42.063117980957,21.504606246948
2403,1453,БУЛАЧАНИ 3-КОН ЦЕНТАР,42.068031311035,21.501714706421
2404,1454,БУЛАЧАНИ 3-КОН РАШТАК,42.068065643311,21.501867294312
2405,1455,БУЛАЧАНИ 4-КОН ЦЕНТАР,42.07243347168,21.497825622559
2406,1456,БУЛАЧАНИ 4-КОН РАШТАК,42.072376251221,21.49803352356
2407,1457,РАШТАК 1-КОН ЦЕНТАР,42.078964233398,21.495576858521
2408,1458,РАШТАК 1-КОН Т,42.078960418701,21.495706558228
2409,1459,РАШТАК 2-КОН ЦЕНТАР,42.081100463867,21.493282318115
2410,1460,РАШТАК 2-КОН Т,42.081039428711,21.493265151978
2411,1461,РАШТАК 3-КОН ЦЕНТАР,42.085021972656,21.490692138672
2412,1462,РАШТАК 3-КОН Т,42.085067749023,21.490798950195
2413,1463,РАШТАК Т,42.085330963135,21.486511230469
2414,1465,ВИНИЧЕ ШКОЛО-КОН Т,42.050216674805,21.514482498169
2415,1467,ВИНИЧЕ ИГРАЛИШТЕ-КОН Т,42.051570892334,21.518697738647
2416,1469,ВИНИЧЕ ЦРКВА-КОН Т,42.052982330322,21.522039413452
2417,1471,ВИНИЧЕ КРИВИНА-КОН Т,42.054740905762,21.522611618042
2418,1472,ВИНИЧЕ Т,42.05632019043,21.52339553833
2419,1473,ПАТ ЗА ЕКОНОМИЈА-КОН ЦЕНТАР,42.013427734375,21.516689300537
2420,1474,ПАТ ЗА ЕКОНОМИЈА-КОН АРАЧИНОВО,42.013374328613,21.516775131226
2421,1475,ЕКОНОМИЈА МАРКЕТ С-КОН ЦЕНТАР,42.014556884766,21.520599365234
2422,1476,ЕКОНОМИЈА МАРКЕТ С-КОН АРАЧИНОВО,42.01432800293,21.520217895508
2423,1477,ЕКОНОМИЈА-КОН ЦЕНТАР,42.015563964844,21.524017333984
2424,1478,ЕКОНОМИЈА-КОН АРАЧИНОВО,42.015380859375,21.523971557617
2425,1479,ПАТ ЗА АРАЧИНОВО БЕНЗИНСКА-КОН ЦЕНТАР,42.017513275146,21.530799865723
2426,1480,ПАТ ЗА АРАЧИНОВО БЕНЗИНСКА-КОН Т,42.017406463623,21.531000137329
2427,1481,ПАТ ЗА БРЊАРЦИ-КОН ЦЕНТАР,42.021850585938,21.545654296875
2428,1482,ПАТ ЗА БРЊАРЦИ-КОН Т,42.021682739258,21.545700073242
2429,1483,АРАЧИНОВО 1-КОН ЦЕНТАР,42.023132324219,21.55005645752
2430,1484,АРАЧИНОВО 1-КОН Т,42.023002624512,21.550113677979
2431,1485,АРАЧИНОВО 2-КОН ЦЕНТАР,42.024501800537,21.554664611816
2432,1486,АРАЧИНОВО 2-КОН Т,42.024337768555,21.554780960083
2433,1487,АРАЧИНОВО 3-КОН ЦЕНТАР,42.026779174805,21.562347412109
2434,1488,АРАЧИНОВО 3-КОН Т,42.026977539062,21.563934326172
2435,1489,АРАЧИНОВО 4-КОН ЦЕНТАР,42.027236938477,21.56770324707
2436,1490,АРАЧИНОВО 4-КОН Т,42.027297973633,21.568340301514
2437,1491,АРАЧИНОВО 5-КОН ЦЕНТАР,42.027652740479,21.57391166687
2438,1492,АРАЧИНОВО 5-КОН Т,42.027542114258,21.573577880859
2439,1493,АРАЧИНОВО Т,42.023513793945,21.571426391602
2440,1494,БРЊАРЦИ-КОН ЦЕНТАР,42.03010559082,21.545928955078
2441,1495,БРЊАРЦИ-КОН Т,42.03002166748,21.546031951904
2442,1496,БРЊАРЦИ Т,42.034378051758,21.54797744751
2449,1503,ПОЛИЦИСКА СТАНИЦА ЗА КУЧИЊА-КОН ЦЕНТАР,41.991264343262,21.512775421143
2450,1504,ПОЛИЦИСКА СТАНИЦА ЗА КУЧИЊА-КОН ИЛИНДЕН,41.991180419922,21.51353263855
2451,1505,ХИПОДРОМ-КОН ЦЕНТАР,41.991291046143,21.523162841797
2452,1506,ХИПОДРОМ-КОН ИЛИНДЕН,41.991283416748,21.523279190063
2453,1507,ХИПОДРОМ НАДВОЗНИК-КОН ЦЕНТАР,41.991432189941,21.530895233154
2454,1508,ХИПОДРОМ НАДВОЗНИК-КОН ИЛИНДЕН,41.991367340088,21.530876159668
2455,1509,ПУСТА КУЛА-КОН ЦЕНТАР,41.992458343506,21.535768508911
2456,1510,ПУСТА КУЛА-КОН ИЛИНДЕН,41.992568969727,21.536407470703
2457,1511,РИО КАФЕ-КОН ЦЕНТАР,41.994167327881,21.540462493896
2458,1512,РИО КАФЕ-КОН ИЛИНДЕН,41.994117736816,21.540391921997
2459,1513,ИЛИНДЕН САТРА-КОН ЦЕНТАР,41.99486541748,21.552806854248
2460,1514,ИЛИНДЕН САТРА-КОН Т,41.99494934082,21.553438186646
2461,1515,ИЛИНДЕН РАМПА-КОН ЦЕНТАР,41.995239257812,21.557634353638
2462,1516,ИЛИНДЕН РАМПА-КОН Т,41.995197296143,21.557666778564
2463,1517,ИЛИНДЕН ИГРАЛИШТЕ-КОН ЦЕНТАР,41.995765686035,21.564558029175
2464,1518,ИЛИНДЕН ИГРАЛИШТЕ-КОН Т,41.995658874512,21.564458847046
2465,1519,ИЛИНДЕН ПРВИ МАЈ-КОН ЦЕНТАР,41.996120452881,21.568517684937
2466,1520,ИЛИНДЕН ПРВИ МАЈ-КОН Т,41.995971679688,21.569677352905
2467,1521,ОПШТИНА ИЛИНДЕН-КОН ЦЕНТАР,41.994632720947,21.576293945312
2468,1522,ОПШТИНА ИЛИНДЕН-КОН Т,41.994552612305,21.575702667236
2469,1523,ОУ ГОЦЕ ДЕЛЧЕВ-КОН ЦЕНТАР,41.992744445801,21.58088684082
2470,1524,ОУ ГОЦЕ ДЕЛЧЕВ-КОН Т,41.992622375488,21.580783843994
2471,1525,МАРИНО ГРАДИНКА-КОН ЦЕНТАР,41.990898132324,21.585304260254
2472,1526,МАРИНО ГРАДИНКА-КОН Т,41.990791320801,21.584516525269
2473,1527,МАРИНО-КОН ЦЕНТАР,41.988956451416,21.587224960327
2474,1528,МАРИНО-КОН Т,41.989807128906,21.586364746094
2475,1529,МАРИНО ИГРАЛИШТЕ-КОН ЦЕНТАР,41.986476898193,21.589162826538
2476,1530,МАРИНО ИГРАЛИШТЕ-КОН Т,41.986709594727,21.588911056519
2477,1531,МАРИНО КАНАЛ-КОН ЦЕНТАР,41.983093261719,21.591222763062
2478,1532,МАРИНО КАНАЛ-КОН Т,41.982620239258,21.591293334961
2479,1533,МАРИНО ЕКОНОМСКА ЗОНА-КОН ЦЕНТАР,41.979667663574,21.593048095703
2481,1534,МАРИНО ЕКОНОМСКА ЗОНА-КОН Т,41.979717254639,21.592872619629
2482,1535,ПЕКАБЕСКО-КОН ЦЕНТАР,41.976867675781,21.593982696533
2483,1536,ПЕКАБЕСКО-КОН Т,41.976833343506,21.593978881836
2484,1537,КАДИНО МЛИН-КОН ЦЕНТАР,41.97371673584,21.595058441162
2485,1538,КАДИНО МЛИН-КОН Т,41.973342895508,21.594985961914
2486,1539,ОУ РИСТО КРЛЕ-КОН ЦЕНТАР,41.970329284668,21.596183776855
2487,1540,ОУ РИСТО КРЛЕ-КОН Т,41.970230102539,21.596054077148
2488,1541,КАДИНО ТРАФОСТАНИЦА-КОН ЦЕНТАР,41.968086242676,21.596656799316
2489,1542,КАДИНО ТРАФОСТАНИЦА-КОН Т,41.967636108398,21.596862792969
2490,1543,КАДИНО СТАРА МЕЛНИЦА-КОН ЦЕНТАР,41.966842651367,21.599578857422
2491,1544,КАДИНО СТАРА МЕЛНИЦА-КОН Т,41.966743469238,21.599338531494
2492,1545,КАДИНО-КОН ЦЕНТАР,41.963638305664,21.598403930664
2493,1546,КАДИНО-КОН Т,41.964389801025,21.598415374756
2494,1547,МРАЛИНО-КОН ЦЕНТАР,41.959823608398,21.601455688477
2495,1548,МРАЛИНО-КОН Т,41.95970916748,21.601278305054
2496,1549,МРАЛИНО СОЛЕН БУНАР-КОН ЦЕНТАР,41.956954956055,21.601936340332
2497,1550,МРАЛИНО СОЛЕН БУНАР-КОН Т,41.956817626953,21.601716995239
2498,1551,МРАЛИНО Т,41.954437255859,21.600509643555
2499,1552,МАРИНО КРСТОСНИЦА-КОН ЦЕНТАР,41.977180480957,21.600999832153
2500,1553,МАРИНО КРСТОСНИЦА-КОН Т,41.976970672607,21.601030349731
2501,1554,БУНАРЏИК ВИКЕНДИЦИ-КОН ЦЕНТАР,41.983066558838,21.604440689087
2502,1555,БУНАРЏИК ВИКЕНДИЦИ-КОН Т,41.983180999756,21.604568481445
2503,1556,БУНАРЏИК-КОН ЦЕНТАР,41.992919921875,21.61669921875
2504,1557,БУНАРЏИК-КОН Т,41.992797851562,21.616737365723
2505,1558,БУНАРЏИК ЦРКВА-КОН ЦЕНТАР,41.994491577148,21.616065979004
2506,1559,БУНАРЏИК ЦРКВА-КОН Т,41.994384765625,21.616180419922
2507,1560,АЈВАТОВЦИ ЈАЗБИНА-КОН ЦЕНТАР,41.996250152588,21.611892700195
2508,1561,АЈВАТОВЦИ ЈАЗБИНА-КОН Т,41.996269226074,21.612115859985
2509,1562,АЈВАТОВЦИ КЛИНЧАРИЦА-КОН ЦЕНТАР,42.001697540283,21.612688064575
2510,1563,АЈВАТОВЦИ КЛИНЧАРИЦА-КОН Т,42.001613616943,21.6125831604
2511,1564,АЈВАТОВЦИ Т,42.005157470703,21.610815048218
2512,1565,МАРИНО 1-КОН ЦЕНТАР,41.997165679932,21.574571609497
2513,1566,МАРИНО 1-КОН Т,41.99711227417,21.574619293213
2514,1567,МАРИНО 2-КОН ЦЕНТАР,41.996032714844,21.582357406616
2515,1568,МАРИНО 2-КОН Т,41.995872497559,21.582490921021
2516,1569,МАРИНО 3-КОН ЦЕНТАР,41.994941711426,21.587078094482
2517,1570,МАРИНО 3-КОН Т,41.994995117188,21.586925506592
2518,1571,МАРИНО 4-КОН ЦЕНТАР,41.990203857422,21.590879440308
2519,1572,МАРИНО 4-КОН Т,41.990272521973,21.590785980225
2520,1573,МАРИНО 5-КОН ЦЕНТАР,41.986484527588,21.593612670898
2521,1574,МАРИНО 5-КОН Т,41.98657989502,21.5934715271
2522,1575,МАРИНО 6-КОН ЦЕНТАР,41.982448577881,21.595989227295
2523,1576,МАРИНО 6-КОН Т,41.982486724854,21.596000671387
2524,1577,МАРИНО 7-КОН ЦЕНТАР,41.979988098145,21.597831726074
2525,1578,МАРИНО 7-КОН Т,41.979988098145,21.59765625
2526,1579,ВОЕН АЕРОДРОМ-КОН ЦЕНТАР,41.977569580078,21.611631393433
2527,1580,ВОЕН АЕРОДРОМ-КОН Т,41.977653503418,21.611686706543
2528,1581,МИЛАДИНОВЦИ ВЛЕЗ-КОН ЦЕНТАР,41.97550201416,21.641864776611
2529,1582,МИЛАДИНОВЦИ ВЛЕЗ-КОН Т,41.974754333496,21.641132354736
2530,1583,МИЛАДИНОВЦИ-КОН ЦЕНТАР,41.980014801025,21.647169113159
2531,1584,МИЛАДИНОВЦИ-КОН Т,41.979957580566,21.647159576416
2532,1585,МИЛАДИНОВЦИ НАДВОЗНИК-КОН ЦЕНТАР,41.982921600342,21.65034866333
2533,1586,МИЛАДИНОВЦИ НАДВОЗНИК-КОН Т,41.982959747314,21.650421142578
2534,1587,МИЛАДИНОВЦИ ЗИК-КОН ЦЕНТАР,41.986660003662,21.651521682739
2535,1588,МИЛАДИНОВЦИ ЗИК-КОН Т,41.98669052124,21.651725769043
2536,1589,ОУ МИЛАДИНОВЦИ-КОН ЦЕНТАР,41.988403320312,21.652160644531
2538,1592,ПАТ ЗА БУЈКОВЦИ-КОН Т,41.991149902344,21.652328491211
2539,1594,БУЈКОВЦИ МОСТ-КОН Т,41.993698120117,21.649053573608
2540,1596,БУЈКОВЦИ 1-КОН Т,41.999584197998,21.650110244751
2541,1598,БУЈКОВЦИ 2-КОН Т,42.003860473633,21.64935874939
2542,1600,МРШЕВЦИ-КОН Т,42.011150360107,21.650272369385
2543,1602,МРЕШЕВЦИ МОСТ-КОН Т,42.015827178955,21.65110206604
2544,1604,БУЧИНЦИ 1-КОН Т,42.020942687988,21.649646759033
2545,1606,БУЧИНЦИ МЛИН-КОН Т,42.024272918701,21.646894454956
2546,1608,БУЧИНЦИ 2-КОН Т,42.027290344238,21.643402099609
2547,1609,БУЧИНЦИ Т,42.03284072876,21.640266418457
2548,1610,ПАТ ЗА ТЕКИЈА-КОН ЦЕНТАР,41.990631103516,21.653564453125
2549,1611,ПАТ ЗА ТЕКИЈА-КОН Т,41.990684509277,21.653499603271
2550,1612,ТЕКИЈА ПОДВОЗНИК-КОН ЦЕНТАР,41.998031616211,21.659740447998
2551,1613,ТЕКИЈА ПОДВОЗНИК-КОН Т,41.997913360596,21.659694671631
2552,1614,ТЕКИЈА 1-КОН ЦЕНТАР,42.004211425781,21.66471862793
2553,1615,ТЕКИЈА 1-КОН Т,42.004180908203,21.664505004883
2554,1616,ТЕКИЈА 2-КОН ЦЕНТАР,42.007125854492,21.666259765625
2555,1617,ТЕКИЈА 2-КОН Т,42.006912231445,21.666473388672
2556,1618,ДЕЉАДРОВЦИ-КОН ЦЕНТАР,42.012920379639,21.668109893799
2557,1619,ДЕЉАДРОВЦИ-КОН Т,42.012840270996,21.668165206909
2558,1620,ДЕЉАДРОВЦИ Т,42.016464233398,21.671173095703
2559,1621,ТРУБАРЕВО КУЛТУРЕН ДОМ-КОН ЦЕНТАР,41.977558135986,21.532800674438
2560,1622,ТРУБАРЕВО КУЛТУРЕН ДОМ-КОН КАТЛАНОВО,41.977386474609,21.532775878906
2561,1623,СКОПСКО ПОЛЕ-КОН ЦЕНТАР,41.97282409668,21.540670394897
2562,1624,СКОПСКО ПОЛЕ-КОН КАТЛАНОВО,41.972568511963,21.54084777832
2563,1626,ДУНЕК-КОН ЦЕНТАР,41.968769073486,21.547479629517
2564,1627,ДУНЕК-КОН КАТЛАНОВО,41.968151092529,21.548271179199
2565,1628,ЈУРУМЛЕРИ-КОН ЦЕНТАР,41.965068817139,21.553619384766
2566,1629,ЈУРУМЛЕРИ-КОН КАТЛАНОВО,41.965026855469,21.553440093994
2567,1630,ЈУРУМЛЕРИ КОРАБИШТЕ-КОН ЦЕНТАР,41.963317871094,21.557001113892
2568,1631,ЈУРУМЛЕРИ КОРАБИШТЕ-КОН КАТЛАНОВО,41.963241577148,21.556871414185
2570,1633,КОЛОНИЈА ИДРИЗОВО-КОН ЦЕНТАР,41.961307525635,21.561550140381
2571,1634,КОЛОНИЈА ИДРИЗОВО-КОН КАТЛАНОВО,41.961246490479,21.561576843262
2572,1635,КПД ИДРИЗОВО-КОН ЦЕНТАР,41.958801269531,21.567121505737
2573,1636,КПД ИДРИЗОВО-КОН КАТЛАНОВО,41.958763122559,21.566970825195
2574,1637,ИДРИЗОВО-КОН ЦЕНТАР,41.956848144531,21.571575164795
2575,1638,ИДРИЗОВО-КОН КАТЛАНОВО,41.95666885376,21.571582794189
2576,1639,ПАТ ЗА КАДИНО-КОН ЦЕНТАР,41.953567504883,21.579254150391
2577,1640,ПАТ ЗА КАДИНО-КОН КАТЛАНОВО,41.953002929688,21.580062866211
2578,1641,ДРМА 1-КОН ЦЕНТАР,41.951095581055,21.584915161133
2579,1642,ДРМА 1-КОН КАТЛАНОВО,41.950775146484,21.585418701172
2580,1643,ДРМА 2-КОН ЦЕНТАР,41.949512481689,21.588687896729
2581,1644,ДРМА 2-КОН КАТЛАНОВО,41.949356079102,21.588623046875
2582,1645,ПЕТРОВЕЦ МЛИН-КОН ЦЕНТАР,41.943599700928,21.603469848633
2583,1646,ПЕТРОВЕЦ МЛИН-КОН КАТЛАНОВО,41.943695068359,21.603109359741
2584,1647,ПЕТРОВЕЦ ИНТЕР ХЕМ-КОН ЦЕНТАР,41.94246673584,21.606657028198
2585,1648,ПЕТРОВЕЦ ИНТЕР ХЕМ-КОН КАТЛАНОВО,41.942291259766,21.606811523438
2586,1649,ПЕТРОВЕЦ 1-КОН ЦЕНТАР,41.94136428833,21.609764099121
2587,1650,ПЕТРОВЕЦ 1-КОН КАТЛАНОВО,41.941459655762,21.609050750732
2588,1651,ПЕТРОВЕЦ ЦРКВА-КОН ЦЕНТАР ,41.940277099609,21.612823486328
2589,1652,ПЕТРОВЕЦ ЦРКВА-КОН КАТЛАНОВО,41.940048217773,21.612884521484
2590,1653,ОПШТИНА ПЕТРОВЕЦ-КОН ЦЕНТАР,41.938064575195,21.617679595947
2591,1654,ОПШТИНА ПЕТРОВЕЦ-КОН КАТЛАНОВО,41.937847137451,21.617628097534
2592,1655,ПЕТРОВЕЦ 2-КОН ЦЕНТАР,41.934757232666,21.620838165283
2593,1656,ПЕТРОВЕЦ 2-КОН КАТЛАНОВО,41.934894561768,21.62061882019
2594,1657,ОУ КОЧО РАЦИН-КОН ЦЕНТАР,41.933242797852,21.622543334961
2595,1658,ОУ КОЧО РАЦИН-КОН КАТЛАНОВО,41.932922363281,21.622650146484
2596,1659,РЖАНИЧИНО ИГРАЛИШТЕ-КОН ЦЕНТАР,41.925861358643,21.630693435669
2597,1660,РЖАНИЧИНО ИГРАЛИШТЕ-КОН СУШИЦА,41.925834655762,21.630905151367
2598,1661,РЖАНИЧИНО Т-КОН ЦЕНТАР,41.928314208984,21.634628295898
2599,1662,РЖАНИЧИНО Т-КОН СУШИЦА,41.928298950195,21.634689331055
2600,1663,РЖАНИЧИНО-КОН ЦЕНТАР,41.929244995117,21.626800537109
2601,1664,РЖАНИЧИНО-КОН КАТЛАНОВО,41.928787231445,21.626998901367
2602,1665,РЖАНИЧИНО КАНАЛ-КОН ЦЕНТАР,41.925548553467,21.630666732788
2603,1666,РЖАНИЧИНО КАНАЛ-КОН КАТЛАНОВО,41.925449371338,21.630599975586
2604,1667,РЖАНИЧИНО ИЗЛЕЗ-КОН ЦЕНТАР,41.922954559326,21.633642196655
2605,1668,РЖАНИЧИНО ИЗЛЕЗ-КОН КАТЛАНОВО,41.923000335693,21.633338928223
2606,1669,РЖАНИЧИНО ФАРМА-КОН ЦЕНТАР,41.919334411621,21.637161254883
2607,1670,РЖАНИЧИНО ФАРМА-КОН КАТЛАНОВО,41.919490814209,21.637044906616
2608,1671,РЖАНИЧИНО ВИКЕНДИЦИ-КОН ЦЕНТАР,41.912368774414,21.644634246826
2609,1672,РЖАНИЧИНО ВИКЕНДИЦИ-КОН КАТЛАНОВО,41.912292480469,21.644533157349
2610,1673,РЖАНИЧИНО ОКТА-КОН ЦЕНТАР,41.904319763184,21.653707504272
2611,1674,РЖАНИЧИНО ОКТА-КОН КАТЛАНОВО,41.904121398926,21.653661727905
2612,1675,ФАЗАНЕРИЈА-КОН ЦЕНТАР,41.895492553711,21.670677185059
2613,1676,ФАЗАНЕРИЈА-КОН КАТЛАНОВО,41.895320892334,21.670516967773
2614,1677,КАТЛАНОВО НАДВОЗНИК-КОН ЦЕНТАР,41.893112182617,21.676239013672
2615,1678,КАТЛАНОВО НАДВОЗНИК-КОН КАТЛАНОВСКА БАЊА,41.893020629883,21.676332473755
2616,1679,КАТЛАНОВО-КОН ЦЕНТАР,41.892154693604,21.680063247681
2617,1680,КАТЛАНОВО-КОН КАТЛАНОВСКА БАЊА,41.892024993896,21.680015563965
2618,1681,КАТЛАНОВО АВТОПАТ-КОН ЦЕНТАР,41.894081115723,21.683338165283
2619,1682,КАТЛАНОВО АВТОПАТ-КОН КАТЛАНОВСКА БАЊА,41.89448928833,21.684122085571
2620,1683,КАТЛАНОВО ТОПЛА ВОДА-КОН ЦЕНТАР,41.89790725708,21.683311462402
2621,1684,КАТЛАНОВО ТОПЛА ВОДА-КОН Т,41.897972106934,21.683443069458
2622,1685,КАТЛАНОВСКА БАЊА Т,41.898880004883,21.693008422852
2623,1686,ПАТ ЗА ОГЊАНЦИ-КОН ЦЕНТАР,41.938808441162,21.613876342773
2624,1687,ПАТ ЗА ОГЊАНЦИ-КОН Т,41.938873291016,21.613851547241
2625,1688,ПЕТРОВЕЦ ТОПОЛИ-КОН ЦЕНТАР,41.93627166748,21.609756469727
2626,1689,ПЕТРОВЕЦ ТОПОЛИ-КОН ОГЊАНЦИ,41.936176300049,21.609672546387
2627,1690,ОГЊАНЦИ ВЛЕЗ-КОН ЦЕНТАР,41.922317504883,21.589813232422
2628,1691,ОГЊАНЦИ ВЛЕЗ-КОН Т,41.922252655029,21.589460372925
2629,1692,ОГЊАНЦИ Т ,41.922096252441,21.582948684692
2630,1693,СВИЊАРСКА ФАРМА-КОН ЦЕНТАР,41.932910919189,21.641548156738
2631,1694,СВИЊАРСКА ФАРМА-КОН СУШИЦА,41.931785583496,21.640821456909
2632,1695,ВОЕНА КАПИЈА-КОН ЦЕНТАР,41.935836791992,21.645690917969
2633,1696,ВОЕНА КАПИЈА-КОН СУШИЦА,41.935745239258,21.645767211914
2634,1697,ПАТ ЗА СУШИЦА КИСЕЛА ВОДА-КОН ЦЕНТАР,41.93872833252,21.666458129883
2635,1698,ПАТ ЗА СУШИЦА КИСЕЛА ВОДА-КОН СУШИЦА,41.938690185547,21.666564941406
2636,1699,ПАТ ЗА ЧИФЛИК-КОН ЦЕНТАР,41.939956665039,21.676345825195
2637,1700,ПАТ ЗА ЧИФЛИК-КОН СУШИЦА,41.939895629883,21.676498413086
2638,1701,ДОЛНО КОЊАРЕ СЕПАРАЦИЈА-КОН ЦЕНТАР,41.939922332764,21.699859619141
2639,1702,ДОЛНО КОЊАРЕ СЕПАРАЦИЈА-КОН СУШИЦА,41.939807891846,21.699741363525
2640,1703,ДОЛНО КОЊАРЕ-КОН ЦЕНТАР,41.942684173584,21.706211090088
2641,1704,ДОЛНО КОЊАРЕ-КОН СУШИЦА,41.942455291748,21.706212997437
2642,1705,ДОЛНО КОЊАРЕ ИЗЛЕЗ-КОН ЦЕНТАР,41.944786071777,21.709352493286
2643,1706,ДОЛНО КОЊАРЕ ИЗЛЕЗ- КОН СУШИЦА,41.944633483887,21.709470748901
2644,1707,КРСТОСНИЦА ЗА ДИВЉЕ-КОН ЦЕНТАР,41.953800201416,21.71483039856
2645,1708,КРСТОСНИЦА ЗА ДИВЉЕ-КОН СУШИЦА,41.953868865967,21.714839935303
2646,1709,ОУ БРАТСТВО ЕДИНСТВО-КОН ЦЕНТАР,41.95645904541,21.715478897095
2647,1710,ОУ БРАТСТВО ЕДИНСТВО-КОН СУШИЦА,41.956485748291,21.715637207031
2648,1711,СРЕДНО КОЊАРЕ МОСТ-КОН ЦЕНТАР,41.95832824707,21.717123031616
2649,1712,СРЕДНО КОЊАРЕ МОСТ-КОН СУШИЦА,41.958236694336,21.717168807983
2650,1713,ГОРНО КОЊАРЕ ВЛЕЗ-КОН ЦЕНТАР,41.973865509033,21.722778320312
2651,1714,ГОРНО КОЊАРЕ ВЛЕЗ-КОН СУШИЦА,41.973827362061,21.722490310669
2652,1715,ГОРНО КОЊАРЕ СРЕД СЕЛО-КОН ЦЕНТАР,41.975505828857,21.721408843994
2653,1716,ГОРНО КОЊАРЕ СРЕД СЕЛО-КОН СУШИЦА,41.975597381592,21.72155380249
2654,1717,КРСТОСНИЦА ЗА ВИНЦЕ-КОН ЦЕНТАР,41.976551055908,21.726495742798
2655,1718,КРСТОСНИЦА ЗА ВИНЦЕ-КОН СУШИЦА,41.976421356201,21.726425170898
2656,1719,СУШИЦА ЛОЗЈА-КОН ЦЕНТАР,41.973323822021,21.742498397827
2657,1720,СУШИЦА ЛОЗЈА-КОН Т,41.973106384277,21.742515563965
2658,1721,СУШИЦА МОСТ-КОН ЦЕНТАР,41.966770172119,21.759157180786
2659,1722,СУШИЦА МОСТ-КОН Т,41.966705322266,21.759069442749
2660,1723,СУШИЦА ВЛЕЗ-КОН ЦЕНТАР,41.959720611572,21.777257919312
2661,1724,СУШИЦА ВЛЕЗ-КОН Т,41.959545135498,21.777410507202
2662,1725,СУШИЦА Т,41.959228515625,21.781400680542
2663,1726,ПАТ ЗА ВИНЦЕ-КОН ЦЕНТАР,41.982849121094,21.729383468628
2664,1727,ПАТ ЗА ВИНЦЕ-КОН Т,41.983135223389,21.729753494263
2665,1728,ВИНЦЕ-КОН ЦЕНТАР,41.992706298828,21.749809265137
2666,1729,ВИНЦЕ-КОН Т,41.992584228516,21.749702453613
2667,1730,ВИНЦЕ Т,41.99585723877,21.755121231079
2673,678,"КИСЕЛА ВОДА ИГРАЛИШТЕ",41.979598999023,21.441497802734
2674,1185,"ПАТ ЗА ЉУБИН-КОН ЦЕНТАР",41.999809265137,21.327802658081
2675,1186,"ПАТ ЗА ЉУБИН-КОН ЉУБИН",41.999858856201,21.327907562256
2676,1187,"САРАЈ СЕРВИСИ-КОН ЦЕНТАР",42.000873565674,21.321674346924
2677,1188,"САРАЈ СЕРВИСИ-КОН ЉУБИН",42.000686645508,21.321716308594
2678,1189,"ЉУБИН НАДВОЗНИК-КОН ЦЕНТАР",42.001335144043,21.318904876709
2679,1190,"ЉУБИН НАДВОЗНИК-КОН ЉУБИН",42.001335144043,21.319017410278
2680,1191,"ЉУБИН Т",42.001537322998,21.310493469238
2687,1591,"ПАТ ЗА БУЈКОВЦИ-КОН ЦЕНТАР",41.991119384766,21.652618408203
2688,1593,"БУЈКОВЦИ МОСТ-КОН ЦЕНТАР",41.99352645874,21.64891242981
2689,1595,"БУЈКОВЦИ 1-КОН ЦЕНТАР",41.999401092529,21.650157928467
2690,1597,"БУЈКОВЦИ 2-КОН ЦЕНТАР",42.004329681396,21.648906707764
2691,1599,"МРШЕВЦИ-КОН ЦЕНТАР",42.011562347412,21.650320053101
2692,1601,"МРЕШЕВЦИ МОСТ-КОН ЦЕНТАР",42.015716552734,21.651178359985
2693,1603,"БУЧИНЦИ 1-КОН ЦЕНТАР",42.020946502686,21.649879455566
2694,1605,"БУЧИНЦИ МЛИН-КОН ЦЕНТАР",42.024208068848,21.646825790405
2695,1607,"БУЧИНЦИ 2-КОН ЦЕНТАР",42.026596069336,21.643867492676
2696,1118,"ВАРВАРА-КОН ЦЕНТАР",41.912574768066,21.43452835083
2697,1114,"ВИКЕНДИЦИ 1-КОН ЦЕНТАР",41.918292999268,21.455493927002
2698,1116,"ВИКЕНДИЦИ 2-КОН ЦЕНТАР",41.916320800781,21.447948455811
2699,1120,"ВИКЕНДИЦИ 3-КОН ЦЕНТАР",41.908065795898,21.416898727417
2700,1124,"МАРКОВА СУШИЦА ВИКЕНДИЦИ-КОН ЦЕНТАР",41.904731750488,21.415895462036
2701,1122,"МАРКОВА СУШИЦА КРСТОСНИЦА-КОН ЦЕНТАР",41.90771484375,21.411912918091
2702,1128,"ПАТ ЗА МАРКОВА РЕКА-КОН ЦЕНТАР",41.89892578125,21.408401489258
2703,1110,"ПАТ ЗА ДРИСЛА-КОН ЦЕНТАР",41.920425415039,21.468730926514
2704,1112,"РЕСТОРАН БЕЛА-КОН ЦЕНТАР",41.919143676758,21.459739685059
2705,1126,"РАМПА ЗА МАРКОВА РЕКА-КОН ЦЕНТАР",41.901737213135,21.412906646729
2706,1204,"ГОРНА МАТКА 1-КОН Т",41.970222473145,21.288759231567
2707,1203,"ГОРНА МАТКА 1-КОН ЦЕНТАР",41.970260620117,21.288801193237
2708,1206,"ГОРНА МАТКА 2-КОН Т",41.969982147217,21.287530899048
2709,1205,"ГОРНА МАТКА 2-КОН ЦЕНТАР",41.9697265625,21.287651062012
2710,1207,"ГОРНА МАТКА Т",41.969116210938,21.285734176636
2711,680,"ГРАНД ПРЕСТИЖ - КОН ЃОРЧЕ ПЕТРОВ",41.997528076172,21.396957397461
2712,679,"ГРАНД ПРЕСТИЖ - КОН ЦЕНТАР",41.997161865234,21.397903442383
2720,1070,"НОВО СЕЛО 3-КОН ЦЕНТАР",41.860626220703,21.620712280273
2721,1068,"НОВО СЕЛО 2-КОН ЦЕНТАР",41.864803314209,21.616914749146
2722,1066,"НОВО СЕЛО 1-КОН ЦЕНТАР",41.867744445801,21.618072509766
2723,1064,"ПАКОШЕВО-КОН ЦЕНТАР",41.87349319458,21.617389678955
2724,1062,"ПАКОШЕВО ВИКЕНДИЦИ-КОН ЦЕНТАР",41.874530792236,21.614109039307
2725,1060,"ПАТ ЗА НОВО СЕЛО-КОН ЦЕНТАР",41.873477935791,21.602897644043
2726,1470,"ВИНИЧЕ КРИВИНА-КОН ЦЕНТАР",42.054683685303,21.522457122803
2727,1468,"ВИНИЧЕ ЦРКВА-КОН ЦЕНТАР",42.05286026001,21.521907806396
2728,1466,"ВИНИЧЕ ИГРАЛИШТЕ-КОН ЦЕНТАР",42.051628112793,21.518743515015
2729,1464,"ВИНИЧЕ ШКОЛО-КОН ЦЕНТАР",42.05029296875,21.514490127563
2738,684,"БАБИН ДОЛ ИГРАЛИШТЕ-КОН Т",41.965774536133,21.445205688477
2739,683,"БАБИН ДОЛ ИГРАЛИШТЕ-КОН КИСЕЛА ВОДА",41.965744018555,21.445449829102
2740,682,"БАБИН ДОЛ ТРАНСФОРМАТОР-КОН Т",41.966945648193,21.448324203491
2741,681,"БАБИН ДОЛ ТРАНСФОРМАТОР-КОН КИСЕЛА ВОДА",41.96688079834,21.448379516602
2766,1738,"ГРОБИШТА ДРАЧЕВО-КОН Т",41.934490203857,21.506589889526
2767,1739,"ГРОБИШТА ДРАЧЕВО-КОН ЦЕНТАР",41.934341430664,21.506769180298
2768,0694,"ЧЕНТО БЕНЗИНСКА 1-КОН АРАЧИНОВО",42.011581420898,21.510620117188
2769,0695,"ЧЕНТО БЕНЗИНСКА 1-КОН ЦЕНТАР",42.011779785156,21.511016845703
4205,696,"МАКЕДОНСКО СЕЛО Т",41.976070404053,21.375499725342
4208,1740,"БАРОВО-КОН ЦЕНТАР",41.944671630859,21.345470428467
4209,1741,"БАРОВО-КОН Т",41.9455909729,21.346410751343
4221,1742,"БУЧИНЦИ ВЛЕЗ-КОН Т",42.030818939209,21.641130447388
4222,1743,"БУЧИНЦИ ВЛЕЗ-КОН ЦЕНТАР",42.030731201172,21.641080856323
4223,710,"БРЊАРСКИ ПАТ- КОН Т",42.026977539062,21.525299072266
4224,711,"БРЊАРСКИ ПАТ-КОН ЦЕНТАР",42.027099609375,21.525390625
4225,712,"БРЊАРСКИ ПАТ Т",42.026920318604,21.528440475464
8796,705,"ОУ КОЧО РАЦИН-КОН СРЕДНО ВОДНО",41.986560821533,21.417659759521
8878,1744,"ДЕЉАДРОВЦИ ПРОДАВНИЦА-КОН Т",42.014205932617,21.669998168945
8879,1745,"ДЕЉАДРОВЦИ ПРОДАВНИЦА-КОН ЦЕНТАР",42.014282226562,21.669891357422
8880,1746,"МРАЛИНСКА РАСКРСНИЦА-КОН КАТЛАНОВО",41.946258544922,21.59587097168
8881,1747,"МРАЛИНСКА РАСКРСНИЦА-КОН ЦЕНТАР",41.946472167969,21.595825195312
8882,0713,"ЏИДИ КОМЕРЦ-КОН ЦЕНТАР",42.046783447266,21.421768188477
8883,0618,"ЧЕНТО АМБУЛАНТА-КОН Т",42.004558563232,21.504230499268
8884,0714,"ГРАДСКИ ТРГОВСКИ ЦЕНТАР",41.994140625,21.434049606323
9123,1748,"КАНАЛ КОН Т",41.972690582275,21.60631942749
9124,1749,"КАНАЛ КОН ЦЕНТАР",41.972820281982,21.606189727783
9137,1750,"БУНАРЏИК ИНД.ЗОНА-КОН Т",41.989212036133,21.608108520508
9138,1751,"БУНАРЏИК ИНД.ЗОНА-КОН ЦЕНТАР",41.989498138428,21.608249664307
9215,707,"ТЕХНОСКОП-КОН ЦЕНТАР",41.961360931396,21.481639862061
9216,708,"ТЕХНОСКОП-КОН ДРАЧЕВО",41.961498260498,21.480960845947
9217,1755,"МИЛАДИНОВЦИ СКЛАД - КОН ЦЕНТАР",41.977779388428,21.644390106201
9218,1754,"МИЛАДИНОВЦИ СКЛАД-КОН  Т",41.977798461914,21.644470214844
9219,0716,"БОЛНИЦА БАРДОВЦИ 1-КОН Т",42.014331817627,21.382600784302
9220,0717,"БОЛНИЦА БАРДОВЦИ 1-КОН ВЛАЕ",42.014278411865,21.382480621338
9271,1756,"ОРЕШАНИ УЧИЛИШТЕ-КОН Т",41.896411895752,21.603090286255
9272,1757,"ОРЕШАНИ УЧИЛИШТЕ-КОН ЦЕНТАР",41.896438598633,21.603269577026
9330,1758,"ХИПОДРОМ 2, СРЦ ВАРДАР-КОН Т",41.99116897583,21.518449783325
9331,1759,"ХИПОДРОМ 2, СРЦ ВАРДАР-КОН ЦЕНТАР",41.991230010986,21.519870758057
9336,1760,"БОЛНИЦА ЕУРОИТАЛИЈА-КОН КАТЛАНОВО",41.939147949219,21.615356445312
9337,1761,"БОЛНИЦА ЕУРОИТАЛИЈА-КОН ЦЕНТАР",41.939331054688,21.615259170532
9339,1762,"ОГЊАНЦИ-КОН ЦЕНТАР",41.920391082764,21.586910247803
9341,732,"СТАЈКОВЦИ ЧАТАЛ-КОН ЦЕНТАР",42.027889251709,21.515060424805
9342,733,"СТАЈКОВЦИ ЧАТАЛ-КОН Т",42.027881622314,21.515819549561
9422,0734,"БОРИС ТРАЈКОВСКИ КАНАЛ-КОН ЦЕНТАР",41.967971801758,21.469131469727
9423,0735,"БОРИС ТРАЈКОВСКИ КАНАЛ-КОН ДРАЧЕВО",41.967590332031,21.469469070435
12860,0587,"ЧЕНТО Т",42.009979248047,21.510238647461
